Zona,Código do Local,Nome do Local,Município,Endereço,Bairro,Seções,Seção-Aptos,Quantidade de Aptos,Latitude,Longitude
1,1465,"ASSOCIAÇÃO DOS FORNECEDORES DE CANA DE PE",Recife,"AV MAL MASCARENHAS DE MORAIS          2028","IMBIRIBEIRA","396, 397, 398, 399, 400, 401, 402, 403, 404, 405, 406, 407, 408","396-324, 397-324, 398-323, 399-322, 400-324, 401-326, 402-325, 403-327, 404-327, 405-323, 406-323, 407-325, 408-327",4220,-8.1023919,-34.9107612
1,1333,"CENTRO DE EDUCAÇÃO INFANTIL BERNARD VAN LEER",Recife,"RUA FRANCISCO VALPASSOS, S/N","BRASILIA TEIMOSA","285, 291, 295, 306, 315, 321","285-372, 291-371, 295-366, 306-371, 315-368, 321-368",2216,-8.0852583,-34.8829894
1,1350,"CLUBE DOS RODOVIÁRIOS - AO LADO DO VIADUTO TANCREDO NEVES",Recife,"AV. MASCARENHA DE MORAIS, 4223","IMBIRIBEIRA","302, 309, 317, 325, 327, 333","302-354, 309-356, 317-354, 325-357, 327-353, 333-352",2126,-8.1219423,-34.9141219
1,1023,"COLEGIO BOA VIAGEM",Recife,"RUA PROFESSOR EDUARDO WANDERLEY FILHO, 539 BOA VIAGEM","BOA VIAGEM","31, 32, 33, 34, 35, 36, 37, 38, 39, 40, 41, 42, 219, 225, 230, 232, 239, 247, 316, 319, 329, 338, 339, 340, 341, 342, 448","31-398, 32-397, 33-399, 34-398, 35-394, 36-397, 37-395, 38-397, 39-397, 40-401, 41-395, 42-398, 219-397, 225-397, 230-396, 232-398, 239-398, 247-397, 316-397, 319-396, 329-396, 338-395, 339-397, 340-396, 341-397, 342-396, 448-397",10716,-8.1107234,-34.8945368
1,1449,"COLÉGIO GGE (ANTIGO ATUAL I / FAPE)",Recife,"RUA JOSÉ DA SILVA LUCENA, 20","IMBIRIBEIRA","350, 352, 354, 356, 358, 360, 362, 364, 367, 368, 443, 446, 449, 450, 451, 452, 455","350-383, 352-382, 354-377, 356-380, 358-379, 360-379, 362-382, 364-379, 367-381, 368-377, 443-381, 446-379, 449-380, 450-379, 451-375, 452-379, 455-377",6449,-8.1156868,-34.9048323
1,1384,"COLÉGIO MÁRCIA CRISTINA",Recife,"AV. ENCANTA MOÇA, 136 - PINA","PINA","305, 310, 323","305-348, 310-348, 323-349",1045,-8.0894454,-34.8858766
1,1490,"COLÉGIO MOTIVO",Recife,"RUA ALAMEDA DAS HORTÊNCIAS","IMBIRIBEIRA","419, 420, 421, 422, 423, 424, 425, 426, 427, 428, 429, 430, 431, 432, 433, 434, 435, 436, 437, 438","419-396, 420-395, 421-394, 422-394, 423-394, 424-396, 425-395, 426-395, 427-394, 428-395, 429-392, 430-395, 431-393, 432-394, 433-393, 434-396, 435-392, 436-394, 437-392, 438-393",7882,-8.1166467,-34.9058835
1,1040,"COLEGIO SANTA MARIA",Recife,"RUA PADRE BERNARDINO PESSOA,  512 BOA VIAGEM","BOA VIAGEM","55, 56, 57, 58, 59, 60, 61, 62, 63, 64, 65, 66, 67, 68, 69, 70, 71, 72, 73, 74, 75, 210, 246, 256, 304, 307, 312, 313, 320, 328, 442, 445","55-416, 56-417, 57-398, 58-395, 59-396, 60-396, 61-394, 62-396, 63-397, 64-396, 65-398, 66-397, 67-395, 68-399, 69-395, 70-397, 71-395, 72-396, 73-397, 74-394, 75-399, 210-397, 246-396, 256-397, 304-423, 307-394, 312-396, 313-397, 320-396, 328-396, 442-397, 445-397",12749,-8.1126771,-34.8971096
1,1520,"CRECHE MUNICIPAL SENADOR PAULO GUERRA",Recife,"RUA ENGENHO CANTO ALEGRE, S/N - IMBIRIBEIRA - RECIFE/PE","IMBIRIBEIRA","343, 441","343-365, 441-232",597,-8.0884729,-34.9048766
1,1120,"DEPARTAMENTO NACIONAL DE INFRAESTRUTURA E TRANSPORTE",Recife,"AV. ENGENHEIRO ANTONIO DE GOIS ,520","PINA","147, 149, 151, 153","147-372, 149-370, 151-372, 153-368",1482,-8.0847523,-34.8869718
1,1481,"ESCOLA ELEONOR ROOSEVELT",Recife,"RUA JEAN EMILE FAVRE S/N, PÇA DA MAURICÉIA","IPSEP","410, 411, 412, 413, 414, 415, 416, 417, 418","410-396, 411-396, 412-398, 413-395, 414-416, 415-396, 416-396, 417-396, 418-396",3585,-8.1080517,-34.9165719
1,1147,"ESCOLA ESTADUAL ASSIS CHATEAUBRIAND",Recife,"RUA FRANCISCO VALPASSOS, SN, BRASÍLIA TEIMOSA","BRASILIA TEIMOSA","165, 166, 167, 168, 169, 170, 221, 240, 258, 270, 275, 279","165-395, 166-393, 167-390, 168-392, 169-395, 170-396, 221-393, 240-388, 258-396, 270-394, 275-396, 279-390",4718,-8.0866075,-34.882666
1,1155,"ESCOLA ESTADUAL DELMIRO GOUVEIA",Recife,"AV. CONSELHEIRO AGUIAR,  S/N","PINA","171, 172, 173, 174, 186, 187, 253","171-340, 172-340, 173-344, 174-344, 186-344, 187-340, 253-339",2391,-8.0927662,-34.8839828
1,1163,"ESCOLA ESTADUAL JOAO BEZERRA",Recife,"RUA FRANCISCO VALPASSOS, SN","PINA","160, 161, 162, 179, 180, 190, 196, 197, 200, 202, 204, 245, 254, 273, 277","160-396, 161-395, 162-395, 179-394, 180-396, 190-398, 196-398, 197-395, 200-397, 202-389, 204-393, 245-388, 254-394, 273-392, 277-394",5914,-8.0860511,-34.8829294
1,1171,"ESCOLA ESTADUAL LANDELINO ROCHA",Recife,"AV. CONSELHEIRO AGUIAR , SN","PINA","181, 182, 183, 205, 334","181-396, 182-397, 183-397, 205-393, 334-397",1980,-8.0928228,-34.8836534
1,1317,"ESCOLA ESTADUAL MENINO JESUS",Recife,"AV. DOMINGOS FERREIRA, S/N","PINA","294, 300, 314","294-392, 300-393, 314-394",1179,-8.1002108,-34.8870776
1,1368,"ESCOLA ESTADUAL SÃO FRANCISCO DE ASSIS",Recife,"RUA SARGENTO SÍLVIO DELMAR HOLLEMBACK, S/N","IMBIRIBEIRA","303, 318, 326, 331, 440","303-365, 318-367, 326-368, 331-367, 440-365",1832,-8.1048035,-34.9092206
1,1066,"ESCOLA ESTADUAL SARGENTO CAMARGO",Recife,"RUA ANTONIO FALCAO, 136 BOA VIAGEM","BOA VIAGEM","93, 94, 95, 96, 97, 98, 287","93-425, 94-396, 95-394, 96-395, 97-394, 98-393, 287-397",2794,-8.1166912,-34.8940292
1,1244,"ESCOLA LUIS DE CAMOES",Recife,"RUA DOUTOR HENRIQUE LINS ,S/N","BRASILIA TEIMOSA","163, 164, 175, 176, 177, 178, 229, 231, 252, 281, 289","163-301, 164-301, 175-303, 176-299, 177-298, 178-301, 229-298, 231-302, 252-293, 281-297, 289-300",3293,-8.0848464,-34.8826088
1,1430,"ESCOLA MUNICIPAL ALMIRANTE SOARES DUTRA",Recife,"RUA CAMUTANGA S/N","CABANGA","344, 345, 346, 347, 348, 349","344-303, 345-299, 346-297, 347-299, 348-299, 349-299",1796,-8.0790855,-34.8950788
1,1503,"ESCOLA MUNICIPAL ENGENHEIRO HENOCH COUTINHO DE MELO",Recife,"RUA DAS OFICINAS, 12","PINA","454","454-22",22,-8.0847614,-34.8839102
1,1104,"ESCOLA MUNICIPAL JOÃO CABRAL DE MELO NETO",Recife,"AV. ENCANTA MOCA, S/N","PINA","131, 132, 133, 134, 206","131-353, 132-351, 133-348, 134-351, 206-351",1754,-8.0916765,-34.8860153
1,1341,"ESCOLA MUNICIPAL JOSUÉ DE CASTRO",Recife,"RUA GUARAJUBA, S/N","BRASILIA TEIMOSA","296, 308, 322","296-398, 308-395, 322-392",1185,-8.0842529,-34.8818459
1,1279,"ESCOLA MUNICIPAL KARLA PATRICIA",Recife,"RUA PROFESSOR EDUARDO WANDERLEY FILHO, 700","BOA VIAGEM","260, 272, 274, 278, 282, 290, 298, 447","260-396, 272-397, 274-396, 278-395, 282-396, 290-399, 298-395, 447-397",3171,-8.1089216,-34.8959428
1,1236,"ESCOLA MUNICIPAL NOVO PINA",Recife,"RUA EURICO VITRUVIO, S/N","PINA","155, 156, 157, 158, 159, 244, 255, 266, 286, 293, 301","155-389, 156-387, 157-386, 158-383, 159-382, 244-384, 255-381, 266-384, 286-384, 293-377, 301-380",4217,-8.0916098,-34.8876861
1,1139,"ESCOLA MUNICIPAL OSVALDO LIMA FILHO",Recife,"AV. ENGENHEIRO DOMINGOS FERREIRA  , S/N","PINA","135, 136, 137, 144, 145, 146, 184, 185, 215, 223, 227, 235, 238, 335","135-378, 136-382, 137-382, 144-377, 145-378, 146-381, 184-382, 185-381, 215-386, 223-385, 227-379, 235-376, 238-382, 335-377",5326,-8.0990131,-34.8865853
1,1325,"ESCOLA MUNICIPAL SOLANO MAGALHAES",Recife,"RUA JAMIL ASFORA, S/N JARDIM BEIRA RIO","PINA","297, 311, 324, 330, 337, 453","297-380, 311-374, 324-376, 330-375, 337-369, 453-178",2052,-8.087968,-34.8933762
1,1112,"ESCOLA MUNICIPAL UMBERTO GONDIM",Recife,"RUA DAS OFICINAS, 13","PINA","138, 140, 142, 212","138-288, 140-290, 142-291, 212-307",1176,-8.0847435,-34.8841292
1,1457,"FACULDADE BOA VIAGEM - FBV",Recife,"RUA JEAN EMILE FAVRE, 422","IMBIRIBEIRA","370, 371, 372, 373, 374, 375, 376, 377, 378, 379, 380, 381, 382, 383, 384, 385, 386, 387, 388, 389, 390, 391, 392, 393, 394, 395","370-396, 371-396, 372-395, 373-392, 374-395, 375-395, 376-393, 377-397, 378-398, 379-395, 380-394, 381-395, 382-393, 383-392, 384-396, 385-390, 386-396, 387-391, 388-394, 389-395, 390-394, 391-396, 392-394, 393-394, 394-393, 395-393",10252,-8.1066778,-34.9149772
1,1511,"FACULDADE NOVA ROMA - UNIDADE BOA VIAGEM",Recife,"RUA PADRE CARAPUCEIRO, 590","BOA VIAGEM","456","456-307",307,-8.1177563,-34.9001164
1,1473,"LOGOS COLÉGIO",Recife,"RUA ZEFERINO PINHO, 507","IMBIRIBEIRA","409, 444","409-354, 444-212",566,-8.0988747,-34.9116302
1,1406,"NÚCLEO COLÉGIO  -  (ANTIGO COLEGIO GGE)",Recife,"AV. DOMINGOS FERREIRA, 2142  -  (PRÓXIMO À IMOBILIÁRIA PAULO MIRANDA)","BOA VIAGEM","332, 336, 457","332-400, 336-389, 457-185",974,-8.1084724,-34.8908372
1,1252,"UNIVERSIDADE SALGADO DE OLIVEIRA - UNIVERSO",Recife,"AV. MASCARENHAS DE MORAES, 2169","IMBIRIBEIRA","111, 112, 113, 114, 115, 116, 117, 118, 119, 120, 121, 122, 123, 124, 125, 261, 269, 276, 280, 283, 288, 292, 299","111-248, 112-247, 113-245, 114-246, 115-249, 116-245, 117-245, 118-245, 119-245, 120-244, 121-245, 122-245, 123-245, 124-246, 125-246, 261-246, 269-245, 276-244, 280-245, 283-246, 288-249, 292-246, 299-247",5654,-8.1032052,-34.9105553
2,1589,"CENTRO COMUNITÁRIO SEBASTIÃO DANTAS",Recife,"RUA PALMARES               116","AREIAS","362, 363, 364, 365, 366, 367","362-220, 363-222, 364-219, 365-220, 366-216, 367-219",1316,-8.0948358,-34.9369041
2,1627,"COLÉGIO 2001 - CENTRO EDUCACIONAL JARDIM SÃO PAULO",Recife,"RUA VITORIANO EBLA, 49","JARDIM SÃO PAULO","392, 393, 394, 395, 396, 397","392-367, 393-367, 394-365, 395-366, 396-365, 397-367",2197,-8.0796714,-34.936032
2,1732,"COLÉGIO 2001-CENTRO EDUC.JD.SÃO PAULO - ANEXO II (ANT. STA BÁRBARA)",Recife,"AVENIDA SÃO PAULO, 257","JARDIM SÃO PAULO","454, 455, 456, 457, 458, 459, 460, 461, 462, 463, 464, 465","454-396, 455-397, 456-398, 457-397, 458-395, 459-396, 460-397, 461-396, 462-394, 463-396, 464-394, 465-396",4752,-8.0840715,-34.9389624
2,1848,"COLÉGIO AVANCE",Recife,"RUA RIO MAJU, 130","IPSEP","441, 442, 443, 444, 445, 446, 447, 448, 449, 450","441-272, 442-274, 443-270, 444-271, 445-272, 446-270, 447-270, 448-270, 449-271, 450-270",2710,-8.1129804,-34.9176604
2,1805,"COLÉGIO E CURSO INOVAÇÃO - CCI",Recife,"RUA PADRE LIMA E SA, 407","IPSEP","538, 539, 540, 541, 542, 543, 544, 545, 546","538-282, 539-286, 540-286, 541-277, 542-285, 543-285, 544-286, 545-284, 546-285",2556,-8.1118883,-34.9256563
2,1660,"COLÉGIO INCENTIVO",Recife,"RUA DR. JOSÉ CONSTANTINO,96","AREIAS","421, 422, 423, 424, 425, 426, 427","421-366, 422-370, 423-369, 424-370, 425-371, 426-374, 427-370",2590,-8.0921983,-34.9365547
2,1120,"COLEGIO VISAO",Recife,"AVENIDA DOUTOR JOSÉ RUFINO, 241","ESTÂNCIA","59, 60, 61, 62, 63, 64, 65, 66, 67, 68, 69, 70, 71, 230, 246, 252, 257, 262","59-394, 60-419, 61-398, 62-393, 63-395, 64-398, 65-396, 66-396, 67-395, 68-397, 69-398, 70-398, 71-395, 230-394, 246-394, 252-397, 257-395, 262-398",7150,-8.0850436,-34.9278578
2,1821,"CRECHE ESCOLA MUNICIPAL DA ESTÂNCIA",Recife,"RUA PROFESSOR CALDAS FILHO, 186","ESTÂNCIA","555","555-83",83,-8.0854588,-34.9282643
2,1562,"CRECHE ESCOLA RECIFE GOVERNADOR MIGUEL ARRAES",Recife,"RUA DR. GILARDI RODRIGUES DOS SANTOS, N.10","ESTÂNCIA","85, 236, 258, 260, 349, 355, 357","85-341, 236-344, 258-342, 260-341, 349-390, 355-390, 357-377",2525,-8.095895,-34.9240024
2,1708,"CRECHE RECIFE 2000",Recife,"RUA RIO SOLIMÕES, S/N","JARDIM UCHÔA","439, 440, 554","439-377, 440-383, 554-40",800,-8.0975434,-34.9372927
2,1066,"ESCOLA AMAURY DE MEDEIROS",Recife,"RUA SAO MIGUEL S/N","AFOGADOS","33, 34, 35, 36, 37, 38, 39, 40, 41, 241, 350, 353, 356, 358, 361","33-396, 34-396, 35-421, 36-389, 37-393, 38-394, 39-395, 40-395, 41-391, 241-396, 350-392, 353-395, 356-395, 358-396, 361-395",5939,-8.0806141,-34.9080499
2,1856,"ESCOLA ANITA GARIBALDI (UNIDADE I)",Recife,"R. AGRIC. JOÃO B. DE OLIVEIRA, 53","IMBIRIBEIRA","101, 102, 103, 104, 105","101-313, 102-310, 103-310, 104-312, 105-311",1556,-8.0955399,-34.9122979
2,1538,"ESCOLA ANITA GARIBALDI (UNIDADE II)",Recife,"RUA CÔNEGO LIRA, 282","IMBIRIBEIRA","337, 344, 348, 351, 354, 359","337-391, 344-394, 348-393, 351-392, 354-394, 359-393",2357,-8.0939618,-34.9117679
2,1775,"ESCOLA BARÃO DE BONITO",Recife,"PRAÇA 4 DE OUTUBRO, SN","AREIAS","502, 503, 504, 505, 506, 507, 508, 509, 510, 511","502-315, 503-315, 504-314, 505-310, 506-314, 507-313, 508-313, 509-308, 510-312, 511-313",3127,-8.0950174,-34.9388824
2,1481,"ESCOLA DÉBORA FEIJÓ",Recife,"RUA JOVELINO SELVA, 71","AFOGADOS","152, 153, 154, 155, 156, 157, 312, 313, 315","152-410, 153-398, 154-393, 155-396, 156-392, 157-394, 312-395, 313-395, 315-395",3568,-8.0804116,-34.9209845
2,1643,"ESCOLA DOM BOSCO",Recife,"RUA ALVENÓPOLIS, 600","JARDIM SÃO PAULO","403, 404, 405, 406, 407, 408, 409, 410, 411, 412, 413, 414, 415, 416, 417, 418","403-346, 404-350, 405-345, 406-344, 407-344, 408-350, 409-344, 410-345, 411-349, 412-348, 413-347, 414-347, 415-342, 416-346, 417-344, 418-345",5536,-8.0794774,-34.9483363
2,1759,"ESCOLA ENGENHEIRO LAURO DINIZ",Recife,"RUA: SATURNINO MEIRELES, S/N, VILA DA SUDENE","IPSEP","474, 475, 476, 477, 478, 479, 480, 481, 482, 483, 484","474-377, 475-376, 476-374, 477-371, 478-374, 479-372, 480-373, 481-376, 482-373, 483-374, 484-377",4117,-8.1144305,-34.921196
2,1163,"ESCOLA GERCINO DE PONTES",Recife,"RUA ALVARO AMORIM, SN                  ","IMBIRIBEIRA","97, 98, 99, 100, 227, 228, 229, 247","97-345, 98-347, 99-347, 100-348, 227-351, 228-347, 229-348, 247-348",2781,-8.0861991,-34.911016
2,1783,"ESCOLA HERÓIS DA RESTAURAÇÃO",Recife,"RUA OITICICA LINS - 55","AREIAS","512, 513, 514, 515, 516, 517, 518, 519, 520, 521, 522, 523","512-383, 513-385, 514-385, 515-384, 516-386, 517-385, 518-387, 519-385, 520-387, 521-385, 522-383, 523-384",4619,-8.0977137,-34.9352353
2,1678,"ESCOLA JOSÉ MARIANO",Recife,"AV. DR. JOSÉ RUFINO, 892","AREIAS","428, 429, 430, 431, 432, 433","428-400, 429-397, 430-393, 431-393, 432-390, 433-398",2371,-8.0879471,-34.9324667
2,1791,"ESCOLA MARIANO TEIXEIRA",Recife,"AV FELIPE FERREIRA- SN","AREIAS","524, 525, 526, 527, 528, 529, 530, 531, 532, 533, 534, 535, 536, 537","524-394, 525-393, 526-397, 527-399, 528-394, 529-393, 530-395, 531-396, 532-396, 533-398, 534-398, 535-390, 536-396, 537-396",5535,-8.0956701,-34.9308423
2,1350,"ESCOLA MUN. MIGUEL ARRAES DE ALENCAR-SEDE (ANT. WALT DISNEY- ESTANCIA)",Recife,"AV TAPAJOS , 433","ESTÂNCIA","72, 73, 74, 75, 76, 77, 78, 79, 80, 81, 82, 83, 84","72-340, 73-339, 74-341, 75-340, 76-338, 77-338, 78-337, 79-339, 80-336, 81-338, 82-337, 83-340, 84-335",4398,-8.092548,-34.9255037
2,1619,"ESCOLA MUNICIPAL BALBINA MENELAU",Recife,"RUA JOÃO DE ANDRADE, 82","JARDIM SÃO PAULO","387, 388, 389, 390, 391","387-401, 388-393, 389-396, 390-390, 391-396",1976,-8.0832263,-34.9497006
2,1635,"ESCOLA MUNICIPAL CHICO MENDES",Recife,"1 TRAVESSA DO CAMPO NÚMERO: S/N","AREIAS","398, 399, 400, 401, 402","398-374, 399-378, 400-380, 401-381, 402-380",1893,-8.1032539,-34.9326317
2,1686,"ESCOLA MUNICIPAL ISAAC PEREIRA DA SILVA",Recife,"RUA OITICICA LINS, S/N","AREIAS","434, 435, 436","434-305, 435-309, 436-308",922,-8.0933279,-34.9348106
2,1651,"ESCOLA MUNICIPAL JARDIM UCHÔA",Recife,"RUA JUPIATA, 211","AREIAS","419, 420","419-283, 420-286",569,-8.0947243,-34.9366369
2,1724,"ESCOLA MUNICIPAL LUIS VAZ DE CAMÕES ",Recife,"R. JACUNDA, 505 - IPSEP, RECIFE - PE","IPSEP","451, 452, 453","451-328, 452-333, 453-167",828,-8.1101518,-34.9213803
2,1872,"ESCOLA MUNICIPAL SANTA LUZIA",Recife,"RUA PROF. CALDAS FILHOS","ESTÂNCIA","274, 276, 277, 278, 316, 322, 330, 336","274-397, 276-394, 277-390, 278-387, 316-387, 322-394, 330-392, 336-388",3129,-8.0854451,-34.9283202
2,1597,"ESCOLA PADRE JOSE MATHIAS DELGADO",Recife,"RUA DEVALDO BORGES, SN","JARDIM SÃO PAULO","368, 369, 370, 371, 372, 373, 374, 375, 376, 377, 378","368-321, 369-319, 370-316, 371-315, 372-318, 373-313, 374-313, 375-316, 376-313, 377-317, 378-316",3477,-8.0789951,-34.9399709
2,1414,"ESCOLA PINHEIROS",Recife,"RUA ARQUITETO LUIZ NUNES, 673","IMBIRIBEIRA","286, 287, 288, 289, 314, 318, 324, 332","286-394, 287-393, 288-398, 289-395, 314-392, 318-388, 324-394, 332-396",3150,-8.0901962,-34.9103943
2,1813,"ESCOLA PLANETA INFANTIL",Recife,"RUA LEANDRO BARRETO, 748","JARDIM SÃO PAULO","547, 548, 549, 550, 551, 552, 553","547-395, 548-394, 549-394, 550-393, 551-394, 552-395, 553-395",2760,-8.0825288,-34.9471679
2,1600,"ESCOLA PROFESSOR JOSÉ VICENTE",Recife,"PRAÇA ALEIXO DE OLIVEIRA,SN","IPSEP","379, 380, 381, 382, 383, 384, 385, 386","379-267, 380-265, 381-260, 382-265, 383-264, 384-264, 385-262, 386-265",2112,-8.1129913,-34.924663
2,1694,"ESCOLA PROFISSIONALIZANTE DE AREIAS",Recife,"RUA IPOJUCA,257","AREIAS","437, 438","437-260, 438-183",443,-8.0939891,-34.9359538
2,1449,"ESCOLA SENADOR NILO COELHO",Recife,"AV. RECIFE, CONJ. RES. IGNEZ ANDREAZZA, SN","ESTÂNCIA","298, 299, 300, 301, 317, 325, 329, 333, 340, 342","298-390, 299-388, 300-388, 301-392, 317-388, 325-392, 329-390, 333-389, 340-387, 342-387",3891,-8.0942904,-34.9279336
2,1767,"ESCOLA TRAJANO DE MENDONCA",Recife,"RUA CAPETINGA, SN","JARDIM SÃO PAULO","485, 486, 487, 488, 489, 490, 491, 492, 493, 494, 495, 496, 497, 498, 499, 500, 501","485-346, 486-344, 487-347, 488-349, 489-348, 490-346, 491-347, 492-344, 493-347, 494-347, 495-347, 496-341, 497-344, 498-346, 499-347, 500-346, 501-344",5880,-8.0786768,-34.9416587
2,1864,"GRAU TÉCNICO",Recife,"AV. MAL. MASCARENHAS DE MORAIS, 1062","IMBIRIBEIRA","55, 56, 57, 58, 255, 259","55-300, 56-302, 57-301, 58-297, 255-301, 259-297",1798,-8.0922333,-34.9089477
2,1740,"SENAI - SERVICO NACIONAL DE APRENDIZAGEM INDUSTRIAL",Recife,"AVENIDA DR JOSE RUFINO, NÚMERO: 1099","AREIAS","466, 467, 468, 469, 470, 471, 472, 473","466-353, 467-354, 468-354, 469-350, 470-352, 471-353, 472-351, 473-351",2818,-8.0897125,-34.9337771
3,1716,"CEJA - POETA JOAQUIM CARDOSO",Recife,"AVENIDA JOSÉ RUFINO, 3071","TEJIPIÓ","316, 317, 350, 356, 426, 443, 477","316-321, 317-325, 350-322, 356-229, 426-322, 443-323, 477-324",2166,-8.09194139,-34.94986917
3,2020,"CENTRO SOCIAL URBANO BIDO KRAUSE",Recife,"RUA 11 DE AGOSTO                       SN","TEJIPIÓ","643, 644, 645, 646, 647, 648, 649, 650, 651, 652, 809","643-394, 644-398, 645-395, 646-396, 647-397, 648-394, 649-396, 650-394, 651-394, 652-393, 809-393",4344,-8.0796637,-34.97035266
3,1058,"COLÉGIO IMACULADA CONCEIÇÃO",Recife,"AVENIDA DOUTOR JOSÉ RUFINO , 2184","BARRO","35, 36, 37, 38, 39, 40, 41, 54, 55, 56, 361, 373","35-398, 36-397, 37-395, 38-398, 39-397, 40-398, 41-392, 54-396, 55-399, 56-393, 361-398, 373-398",4759,-8.09285426,-34.94217156
3,2330,"COLÉGIO MULTIPLO ENSINO",Recife,"RUA GUANABARA,99","TEJIPIÓ","678, 731, 732, 733, 734, 812","678-380, 731-377, 732-380, 733-379, 734-379, 812-380",2275,-8.08988501,-34.96537258
3,2224,"CRECHE ESCOLA DO IBURA (ANTIGO CENTRO  MUN. EDUC. INFANTIL DO IBURA)",Recife,"AV EXPEDICIONÁRIO FRANCISCO VITORIANO, S/N - UR-10","IBURA","747, 802, 811","747-364, 802-358, 811-356",1078,-8.13393986,-34.9496055
3,2321,"CRECHE ESCOLA GOVERNADOR EDUARDO CAMPOS",Recife,"RUA VALE DO CARIRI, S/N - UR-5","COHAB","711, 712, 713, 714, 715, 716","711-396, 712-396, 713-393, 714-395, 715-395, 716-398",2373,-8.13203105,-34.94851271
3,2313,"CRECHE ESCOLA MAURICÉIA DA SILVA DIAS ( CRECHE PANTANAL )",Recife,"AV. PRESIDENTE MÉDICI, S/N - UR3","COHAB","785, 786, 787, 795, 808","785-379, 786-381, 787-378, 795-379, 808-377",1894,-8.10706398,-34.95690014
3,2070,"CRECHE MUNICIPAL SONHO DO POVO",Recife,"RUA CORDILHEIRA, S/N","UR 1 - IBURA","679, 680, 681","679-399, 680-397, 681-398",1194,-8.1190292,-34.94557325
3,2143,"ERFEM - MONTE VERDE",Recife,"RUA MARIA LIMA DA SILVA, SN","MONTE VERDE - IBURA","815","815-98",98,-8.1162378,-34.96035165
3,2100,"ESC. MUN. ASA BRANCA",Recife,"R MARIA ADELAIDE CASTELO BRANCO, 55 - COHAB","IBURA","687, 805","687-348, 805-290",638,-8.12417608,-34.94930227
3,2135,"ESC.MUN.PROF.ORLANDO PARAHYM",Recife,"R SOLDADO VIRGILIO LÚCIO, 104 - UR-4","IBURA","696, 804","696-361, 804-220",581,-8.12765049,-34.94727296
3,1252,"ESCOLA ALBERTO TORRES",Recife,"AV. DR. JOSÉ RUFINO, 2993","TEJIPIÓ","197, 198, 199, 200, 263, 268, 286, 287, 289, 379","197-377, 198-384, 199-381, 200-379, 263-380, 268-380, 286-382, 287-378, 289-383, 379-383",3807,-8.09147707,-34.94980369
3,1511,"ESCOLA ANIBAL FALCÃO",Recife,"RUA APRIGIO GUIMARAES, 102","TEJIPIÓ","417, 438, 445, 460, 470, 483, 487, 491, 801","417-395, 438-393, 445-396, 460-394, 470-395, 483-393, 487-397, 491-393, 801-398",3554,-8.08751788,-34.95726898
3,2194,"ESCOLA CARLÚCIO CASTANHO (ANTIGA ESCOLA MUNICIPAL UR-1)",Recife,"AV. PERNAMBUCO, S/N UR1","IBURA","718, 719, 720, 721, 722, 723, 724, 725, 726, 727, 728, 729, 730","718-209, 719-207, 720-209, 721-210, 722-209, 723-211, 724-221, 725-210, 726-208, 727-208, 728-213, 729-209, 730-209",2733,-8.121267,-34.94621743
3,1996,"ESCOLA DOM SEBASTIAO LEME (POLIVALENTE)",Recife,"AV. ENGENHO MURIBARA, S/N","UR 1 - IBURA","607, 608, 609, 610, 611, 612, 613, 614, 615, 616, 617, 618, 619, 620, 621, 622, 623","607-396, 608-396, 609-393, 610-395, 611-396, 612-395, 613-396, 614-396, 615-393, 616-398, 617-394, 618-397, 619-393, 620-396, 621-395, 622-396, 623-399",6724,-8.11468068,-34.94950087
3,1260,"ESCOLA EDWIGES DE SA PEREIRA",Recife,"RUA RIVADÁVIA GUERRA, 50","TEJIPIÓ","203, 204, 235, 237, 246, 276","203-235, 204-235, 235-234, 237-233, 246-231, 276-231",1399,-8.08991996,-34.95256022
3,1988,"ESCOLA LAGOA ENCANTADA",Recife,"RUA DR. MOACIR SALES, S/N","LAGOA ENCANTADA","588, 589, 590, 591, 592, 593, 594, 595, 596, 597, 598, 599, 600, 601, 602, 603, 604, 605, 606","588-389, 589-390, 590-390, 591-391, 592-388, 593-389, 594-388, 595-387, 596-388, 597-388, 598-392, 599-390, 600-393, 601-391, 602-389, 603-388, 604-388, 605-387, 606-391",7397,-8.122798,-34.95091593
3,1244,"ESCOLA MARCELINO CHAMPAGNAT",Recife,"RUA RIVADAVIA GUERRA ,   55","TEJIPIÓ","187, 188, 189, 190, 191, 192, 193, 194, 195, 196, 201, 202, 371","187-195, 188-196, 189-190, 190-192, 191-198, 192-190, 193-191, 194-193, 195-192, 196-196, 201-195, 202-193, 371-195",2516,-8.08972686,-34.95250521
3,2054,"ESCOLA MARIA SAMPAIO DE LUCENA",Recife,"AV. PERNAMBUCO, S/N","UR 1 - IBURA","667, 668, 669, 670, 671, 672, 673, 674, 675, 676, 677","667-395, 668-397, 669-396, 670-396, 671-394, 672-396, 673-395, 674-390, 675-395, 676-393, 677-393",4340,-8.12109221,-34.94618145
3,2178,"ESCOLA MISSIONÁRIO SÃO BENTO",Recife,"RUA CAPITÃO VICENTE CURADO","UR-4","797, 813","797-367, 813-196",563,-8.13158467,-34.94767403
3,2216,"ESCOLA MONSENHOR ALVARO NEGROMONTE",Recife,"RUA ONZE DE AGOSTO, SN","TEJIPIÓ","735, 736, 737, 738, 739, 740, 741, 742, 743, 744, 745, 746","735-396, 736-395, 737-398, 738-394, 739-393, 740-396, 741-397, 742-394, 743-393, 744-396, 745-395, 746-395",4742,-8.08083828,-34.96857744
3,2127,"ESCOLA MUNCIPAL JOSE MUCIO MONTEIRO",Recife,"AV. JOAO RIO BRANCO DE LIMA - UR - 12 , 125","IBURA","694, 695","694-397, 695-393",790,-8.12750986,-34.95304669
3,2267,"ESCOLA MUNICIPAL 27 DE NOVEMBRO",Recife,"RUA 21 DE ABRIL, 1120","UR 3 - IBURA","788, 789, 790, 791","788-394, 789-398, 790-394, 791-394",1580,-8.11157708,-34.95378358
3,2275,"ESCOLA MUNICIPAL ALTO DA BELA VISTA",Recife,"RUA ALTO DA BELA VISTA, N 338/369","TOTÓ","792, 793, 794","792-395, 793-395, 794-396",1186,-8.08480741,-34.96883462
3,2038,"ESCOLA MUNICIPAL CICERO FRANKLIN CORDEIRO",Recife,"RUA FELIPE DOS SANTOS - UR 05","IBURA","653, 654, 655, 656, 657, 658, 659","653-395, 654-397, 655-391, 656-395, 657-393, 658-396, 659-396",2763,-8.13595889,-34.95472997
3,2232,"ESCOLA MUNICIPAL CRISTIANO CORDEIRO",Recife,"AV. SANTOS, S/N","UR 2 - IBURA ALTO","748, 749, 750, 751, 752, 753, 754, 755, 756, 757","748-387, 749-384, 750-384, 751-382, 752-386, 753-388, 754-387, 755-385, 756-381, 757-380",3844,-8.11476328,-34.95385308
3,1325,"ESCOLA MUNICIPAL DE TEJIPIO",Recife,"RUA TUTOIA, 165","TEJIPIÓ","224, 225, 226, 227, 381","224-298, 225-295, 226-291, 227-297, 381-294",1475,-8.09213178,-34.96433095
3,2046,"ESCOLA MUNICIPAL DO SANCHO",Recife,"RUA JOÃO FERREIRA, 427, SANCHO","TEJIPIÓ","660, 661, 662, 663, 664, 665, 666","660-209, 661-213, 662-212, 663-217, 664-212, 665-211, 666-213",1487,-8.0906564,-34.96578607
3,2097,"ESCOLA MUNICIPAL FUTURO FELIZ",Recife,"RUA UBIRAJUBA, S/N","TRES CARNEIROS","684, 685, 686, 806","684-364, 685-360, 686-363, 806-237",1324,-8.12659045,-34.95567784
3,2151,"ESCOLA MUNICIPAL JARDIM MONTE VERDE",Recife,"AVENIDA CHAPADA DO ARARIPE, 92","MONTE VERDE - IBURA","697, 698, 699, 700, 701, 702, 703, 704, 705, 807","697-370, 698-372, 699-369, 700-370, 701-366, 702-369, 703-370, 704-369, 705-372, 807-367",3694,-8.12003534,-34.96008229
3,2089,"ESCOLA MUNICIPAL LAGOA ENCANTADA",Recife,"RUA DR. BENIGNO JORDÃO DE VASCONCELOS, S/N","LAGOA ENCANTADA","682, 683","682-397, 683-397",794,-8.11992152,-34.95018168
3,2119,"ESCOLA MUNICIPAL POETA PAULO BANDEIRA DA CRUZ",Recife,"RUA PANELAS, S/N UR2","UR 2 - IBURA ALTO","688, 689, 690, 691, 692, 693","688-355, 689-347, 690-350, 691-349, 692-351, 693-349",2101,-8.12182355,-34.95545278
3,2011,"ESCOLA MUNICIPAL PROF. MARIA DA PAZ BRANDAO ALVES",Recife,"RUA DA FELICIDADE,51","SANCHO","632, 633, 634, 635, 636, 637, 638, 639, 640, 641, 642, 717","632-363, 633-359, 634-360, 635-362, 636-360, 637-364, 638-362, 639-362, 640-361, 641-363, 642-360, 717-347",4323,-8.08239238,-34.96153418
3,2160,"ESCOLA MUNICIPAL VILA SESAMO",Recife,"VALE DO ITAJAÍ, 65","COHAB","706, 707, 708, 709, 710","706-396, 707-396, 708-391, 709-395, 710-393",1971,-8.13376554,-34.94999914
3,2348,"ESCOLA PADRE LEBRET",Recife,"AVENIDA ANDGRA DOS REIS","UR 2 - IBURA ALTO","758, 759, 760, 761, 762, 763, 764, 765, 766, 767, 768, 769, 798","758-354, 759-353, 760-357, 761-353, 762-353, 763-348, 764-354, 765-353, 766-362, 767-347, 768-358, 769-359, 798-351",4602,-8.1200325,-34.9545531
3,2003,"ESCOLA PROF. MARCOS DE BARROS FREIRE",Recife,"AV. ENGENHO BABILONIA                          SN","UR 3 - IBURA","624, 625, 626, 627, 628, 629, 630, 631","624-382, 625-376, 626-378, 627-377, 628-379, 629-377, 630-376, 631-377",3022,-8.11258614,-34.94765013
3,2240,"ESCOLA PROFESSOR JORDAO EMERENCIANO",Recife,"AV SANTAREM, S/N UR-2 IBURA","COHAB","770, 771, 772, 773, 774, 775, 776, 777, 778, 779, 780, 781, 782, 783, 784, 803, 810, 814, 816","770-391, 771-390, 772-391, 773-393, 774-390, 775-392, 776-383, 777-395, 778-388, 779-393, 780-390, 781-390, 782-387, 783-389, 784-391, 803-390, 810-390, 814-384, 816-165",7182,-8.11991893,-34.95444642
3,1520,"ESCOLA PROFESSORA OLINDINA ALVES SEMENTE",Recife,"RUA PAULO AFONSO , SN                               ","BARRO","378, 423, 434, 441, 453, 465, 474, 481, 486, 493","378-395, 423-397, 434-397, 441-394, 453-396, 465-396, 474-396, 481-395, 486-395, 493-393",3954,-8.08821537,-34.94246763
3,1970,"ESCOLA SENADOR ANTONIO FARIAS",Recife,"AVENIDA CAMPO VERDE, 415","TRES CARNEIROS","582, 583, 584, 585, 586, 587","582-393, 583-396, 584-395, 585-396, 586-394, 587-397",2371,-8.12678209,-34.95566037
3,1287,"ESCOLA SENADOR PAULO GUERRA",Recife,"AV. DR. JOSE RUFINO,   2993","TEJIPIÓ","42, 43, 44, 45, 46, 47, 48, 49, 215, 216, 217, 218, 219, 220, 304, 305, 309, 315, 383","42-218, 43-217, 44-221, 45-221, 46-220, 47-219, 48-217, 49-217, 215-219, 216-217, 217-220, 218-219, 219-219, 220-217, 304-218, 305-217, 309-221, 315-220, 383-214",4151,-8.09245552,-34.94983247
3,1961,"ESCOLA VILA DOS MILAGRES",Recife,"RUA NOSSA SENHORA DO CARMO","IBURA","577, 578, 579, 580, 581","577-390, 578-388, 579-384, 580-388, 581-389",1939,-8.11297613,-34.94605355
4,1015,"ESCOLA DO ARQUIPÉLAGO DE FERNANDO DE NORONHA",Fernando De Noronha,"ALTO DA FLORESTA NOVA, S/N","VILA FLORESTA NOVA","146, 147, 186, 192, 215, 227, 234, 370, 372","146-385, 147-381, 186-386, 192-384, 215-381, 227-381, 234-378, 370-387, 372-381",3444,0,0
4,1325,"ATI - AGÊNCIA ESTADUAL DE TECNOLOGIA DA INFORMAÇÃO",Recife,"AV. RIO CAPIBARIBE, 147","SAO JOSE","130, 131, 132, 133, 134, 135, 136, 137, 138, 139","130-281, 131-278, 132-279, 133-282, 134-280, 135-280, 136-284, 137-279, 138-278, 139-280",2801,-8.0667271,-34.8836786
4,1694,"CASA DA AMIZADE",Recife,"RUA OTHON PARAÍSO, 132","TORREAO","335, 336, 337","335-241, 336-242, 337-241",724,-8.0397377,-34.8833764
4,1740,"CEMEI - CENTRO MUNICIPAL DE EDUCACAO INFANTIL MÃEZINHA DO COQUE",Recife,"RUA GUAPIRAMA, S/N","ILHA JOANA BEZERRA","128, 129, 170, 206, 218, 371","128-344, 129-351, 170-347, 206-347, 218-352, 371-346",2087,-8.0718635,-34.8998132
4,1589,"CENÁCULO ESPÍRITA CASA DE MARIA",Recife,"RUA MARQUÊS DE BAEPENDI, 219","CAMPO GRANDE","270, 271, 272","270-382, 271-377, 272-384",1143,-8.0272749,-34.8859324
4,1090,"CENTRO DE EDUCAÇÃO, TECNOLOGIA E CIDADANIA - CETEC- ANT CENTRO NOBREGA",Recife,"AV OLIVEIRA LIMA, 824","BOA VISTA","37, 38, 39, 40, 41, 42, 43, 44, 45, 46, 47","37-160, 38-159, 39-159, 40-158, 41-158, 42-158, 43-158, 44-158, 45-158, 46-159, 47-158",1743,-8.05737,-34.8872347
4,1716,"COLÉGIO DO SABER",Recife,"RUA FRANKLIN TÁVORA, 159","CAMPO GRANDE","348, 349, 350, 351, 381","348-394, 349-392, 350-391, 351-394, 381-9",1580,-8.0287002,-34.8843447
4,1686,"COLEGIO IMACULADO CORACAO DE MARIA",Recife,"RUA DR. MACHADO, 379","CAMPO GRANDE","332, 333, 334","332-390, 333-388, 334-390",1168,-8.0295959,-34.8828439
4,1724,"COLÉGIO JESUS CRUCIFICADO",Recife,"ESTRADA DE BELEM, 1164","CAMPO GRANDE","352, 353, 354, 355, 356, 357, 358, 359, 360, 361, 362, 363","352-394, 353-398, 354-395, 355-396, 356-398, 357-393, 358-399, 359-398, 360-395, 361-393, 362-395, 363-394",4748,-8.032209,-34.8815917
4,1120,"COLÉGIO SALESIANO SAGRADO CORAÇÃO",Recife,"RUA DOM BOSCO                                  551","BOA VISTA","20, 21, 22, 23, 32, 33, 34, 35, 36, 48, 49, 50, 51, 52, 53, 54, 55, 56, 57, 150","20-373, 21-356, 22-357, 23-358, 32-358, 33-356, 34-359, 35-358, 36-357, 48-357, 49-357, 50-358, 51-357, 52-359, 53-356, 54-352, 55-357, 56-359, 57-357, 150-362",7163,-8.0604739,-34.8933647
4,1392,"EREM OLIVEIRA LIMA",Recife,"RUA BARAO DE SAO BORJA, 347","BOA VISTA","195, 202, 208, 213, 220, 231","195-324, 202-327, 208-320, 213-323, 220-323, 231-323",1940,-8.0604935,-34.8908027
4,1376,"EREM POETA MANUEL BANDEIRA",Recife,"RUA MIGUEL DE CERVANTES, SN","ILHA DO LEITE","189, 194, 207, 216, 228, 236, 374","189-381, 194-365, 207-367, 216-372, 228-366, 236-371, 374-171",2393,-8.0657305,-34.8937969
4,1201,"EREM SIZENANDO SILVEIRA",Recife,"AVENIDA MÁRIO MELO, S/N","SANTO AMARO","1, 2, 3, 4, 5, 6, 7, 8","1-215, 2-218, 3-216, 4-214, 5-210, 6-214, 7-215, 8-213",1715,-8.0544782,-34.8817894
4,1520,"ESCOLA  MUNICIPAL PROFESSOR JOSUÉ DE CASTRO",Recife,"RUA MARTIN LUTHER KING, 368","ILHA DO LEITE","224, 230, 232, 233","224-382, 230-388, 232-388, 233-381",1539,-8.0694052,-34.899035
4,1171,"ESCOLA ANÍBAL FERNANDES",Recife,"RUA MARQUES DO POMBAL S/N","SANTO AMARO","75, 76, 77, 78, 79, 80, 81, 82, 102, 103, 104, 149","75-409, 76-396, 77-396, 78-394, 79-391, 80-390, 81-394, 82-395, 102-391, 103-390, 104-392, 149-395",4733,-8.0476244,-34.8813587
4,1490,"ESCOLA CONEGO ROCHAEL DE MEDEIROS",Recife,"AV. MÁRIO MELO, S/N","SANTO AMARO","107, 113, 114, 115, 116, 117","107-266, 113-273, 114-272, 115-268, 116-263, 117-267",1609,-8.0552189,-34.8799188
4,1406,"ESCOLA DE REFERÊNCIA EM ENSINO FUNDAMENTAL MONSENHOR LEONARDO DE BARRO",Recife,"RUA ARARIBA, S/N","SAO JOSE","196, 200, 204, 211, 229","196-387, 200-384, 204-381, 211-382, 229-386",1920,-8.073872,-34.8916216
4,1708,"ESCOLA DE REFERÊNCIA EM ENSINO MÉDIO CLÓVIS BEVILAQUA",Recife,"PRACA TERTULIANO FEITOSA SN","HIPODROMO","338, 339, 340, 341, 342, 343, 344, 345, 346, 347","338-393, 339-391, 340-396, 341-395, 342-389, 343-392, 344-396, 345-394, 346-388, 347-389",3923,-8.0329496,-34.8869866
4,1317,"ESCOLA DE REFERÊNCIA EM ENSINO MÉDIO JOAQUIM NABUCO",Recife,"RUA IMPERIAL, 1102","SAO JOSE","161, 162, 163, 168, 193, 219, 222, 373","161-381, 162-371, 163-371, 168-367, 193-369, 219-376, 222-368, 373-310",2913,-8.0749404,-34.8912595
4,1600,"ESCOLA DE REFERÊNCIA EM ENSINO MÉDIO NÓBREGA(ANTIGO OLIVIO MONTENEGRO)",Recife,"ESTRADA DE BELEM, 257","ENCRUZILHADA","284, 285, 286, 287, 288, 289, 290, 291, 292, 293, 294","284-375, 285-375, 286-375, 287-380, 288-375, 289-378, 290-375, 291-376, 292-377, 293-377, 294-378",4141,-8.036079,-34.8891592
4,1481,"ESCOLA DE REFERÊNCIA EM ENSINO MÉDIO SYLVIO RABELLO",Recife,"AV. MÁRIO MELO, S/N","SANTO AMARO","9, 93, 94, 95, 96, 97, 98, 99, 100, 101, 140, 141","9-187, 93-182, 94-187, 95-183, 96-189, 97-183, 98-194, 99-189, 100-190, 101-182, 140-186, 141-183",2235,-8.0546948,-34.8807426
4,1627,"ESCOLA EMBAIXADOR GILBERTO AMADO",Recife,"PRACA TERTULIANO FEITOSA ,SN","HIPODROMO","300, 301, 302, 303, 304, 305, 306","300-309, 301-312, 302-320, 303-310, 304-310, 305-328, 306-325",2214,-8.0327883,-34.8878349
4,1775,"ESCOLA ESPAÇO DINÂMICO",Recife,"R. CATULO DA PAIXÃO CEARENSE, 95","CAMPO GRANDE","380","380-6",6,0,0
4,1562,"ESCOLA ESTADUAL DOM CARLOS COELHO",Recife,"AV MARECHAL DEODORO, 626","CAMPO GRANDE","244, 245, 246, 247, 248, 249, 250, 251, 252, 253","244-365, 245-366, 246-367, 247-370, 248-366, 249-373, 250-367, 251-369, 252-364, 253-368",3675,-8.0360151,-34.8832729
4,1570,"ESCOLA ESTADUAL JARBAS PERNAMBUCANO",Recife,"RUA BARÃO DE TAMANDARÉ","CAJUEIRO","254, 255, 256, 257, 258, 259, 260, 261, 262, 263, 264, 265, 266, 267, 268, 269","254-370, 255-366, 256-369, 257-364, 258-363, 259-367, 260-369, 261-369, 262-362, 263-371, 264-366, 265-367, 266-367, 267-364, 268-363, 269-365",5862,-8.0106766,-34.8833191
4,1244,"ESCOLA ESTADUAL JOSÉ MARIA",Recife,"RUA TREZE DE MAIO SN","SANTO AMARO","83, 84, 85, 86, 108, 109, 110, 111, 155, 184, 188, 190, 191","83-333, 84-333, 85-340, 86-344, 108-341, 109-338, 110-338, 111-341, 155-342, 184-341, 188-336, 190-334, 191-339",4400,-8.0479681,-34.8805986
4,1660,"ESCOLA ESTADUAL SAO JUDAS TADEU",Recife,"RUA MARCILIO DIAS, 591","CAMPINA DO BARRETO","314, 315, 316, 317, 318, 319, 320, 321, 322, 323, 324, 325, 326, 327","314-414, 315-391, 316-393, 317-391, 318-392, 319-395, 320-397, 321-397, 322-396, 323-393, 324-393, 325-399, 326-394, 327-392",5537,-8.0208128,-34.8811931
4,1295,"ESCOLA LUIZ DELGADO",Recife,"RUA DO HOSPÍCIO, S/N  - EM FRENTE AO PARQUE TREZE DE MAIO","BOA VISTA","118, 119, 120, 121, 122","118-392, 119-395, 120-390, 121-394, 122-392",1963,-8.0557655,-34.8826629
4,1678,"ESCOLA MUNICIPAL ÁGUA FRIA",Recife,"RUA DOS CRAVEIROS, 441","CAMPINA DO BARRETO","328, 329, 330, 331","328-364, 329-365, 330-370, 331-361",1460,-8.0129146,-34.8810423
4,1783,"ESCOLA MUNICIPAL AGUA FRIA - ANEXO",Recife,"RUA CÔNEGO OLÍMPIO TORRES, S/N","CAMPINA DO BARRETO","377","377-21",21,0,0
4,1554,"ESCOLA MUNICIPAL CAMPINA DO BARRETO",Recife,"RUA VIRGÍLIO DE MELO FRANCO, 28-A","CAJUEIRO","237, 238, 239, 240, 241, 242, 243","237-300, 238-301, 239-300, 240-297, 241-298, 242-290, 243-299",2085,-8.009449,-34.8865471
4,1619,"ESCOLA MUNICIPAL COMPOSITOR CAPIBA (ANTIGO RADICAL COLÉGIO E CURSO)",Recife,"RUA OTHON PARAÍSO, 375","TORREAO","295, 296, 297, 298, 299","295-165, 296-165, 297-168, 298-165, 299-165",828,-8.0375476,-34.883751
4,1309,"ESCOLA MUNICIPAL DE TEMPO INTEGRAL JOSE DA COSTA PORTO",Recife,"RUA CABO EUTROPIO, SN","SAO JOSE","123, 124, 125, 126, 127, 209, 212, 221, 235, 375","123-384, 124-378, 125-389, 126-370, 127-374, 209-378, 212-371, 221-371, 235-371, 375-359",3745,-8.0720222,-34.900753
4,1597,"ESCOLA MUNICIPAL MARIO MELO",Recife,"RUA OLIVEIRA FONSECA ,SN","CAMPO GRANDE","273, 274, 275, 276, 277, 278, 279, 280, 281, 282, 283","273-361, 274-359, 275-363, 276-362, 277-360, 278-364, 279-364, 280-370, 281-364, 282-362, 283-363",3992,-8.0285576,-34.8799585
4,1651,"ESCOLA MUNICIPAL PROFESSORA  JANDIRA BOTELHO",Recife,"RUA FARIAS NEVES, S/N","CAMPO GRANDE","312, 313","312-391, 313-390",781,-8.0240682,-34.8780869
4,1643,"ESCOLA MUNICIPAL PROFESSORA HÉLIA MARIA PEREIRA",Recife,"RUA ALICE GOMES, 37","CAMPO GRANDE","309, 310, 311","309-320, 310-318, 311-314",952,-8.0367278,-34.8803119
4,1635,"ESCOLA MUNICIPAL SANTA CECILIA",Recife,"RUA ALICE GOMES, 49","CAMPO GRANDE","307, 308, 376","307-383, 308-380, 376-54",817,-8.0367796,-34.8805078
4,1538,"ESCOLA WALDEMAR DE OLIVEIRA",Recife,"AV. MÁRIO MELO, S/N","SANTO AMARO","105, 106, 112, 167","105-207, 106-214, 112-215, 167-212",848,-8.0549996,-34.8802025
4,1546,"ETE - ESCOLA TECNICA ESTADUAL - GINASIO PERNAMBUCANO",Recife,"AVENIDA CRUZ CABUGÁ, N 269","SANTO AMARO","197, 199, 201, 203, 210, 214, 223, 225, 226","197-320, 199-320, 201-315, 203-321, 210-319, 214-317, 223-316, 225-320, 226-320",2868,-8.0517981,-34.8801503
4,1163,"ETE - ESCOLA TÉCNICA ESTADUAL ALMIRANTE SOARES DUTRA",Recife,"PRACA ABREU E LIMA,SN","SANTO AMARO","64, 65, 66, 67, 68, 69, 70, 71, 72, 73, 74, 160, 185","64-311, 65-298, 66-308, 67-306, 68-307, 69-307, 70-306, 71-305, 72-313, 73-306, 74-307, 160-311, 185-307",3992,-8.047383,-34.8758951
4,1732,"PARÓQUIA NOSSA SENHORA DO BOM PARTO-ANT CENTRO PAROQUIAL CAMPO GRANDE",Recife,"ESTRADA DE BELEM, 1425","CAMPO GRANDE","364, 365, 366, 367, 368, 369","364-306, 365-305, 366-302, 367-302, 368-347, 369-306",1868,-8.0322568,-34.8791636
4,1759,"SENAC",Recife,"RUA DO POMBAL, 57","SANTO AMARO","87, 88, 89, 90, 91, 92, 379","87-382, 88-379, 89-375, 90-376, 91-376, 92-380, 379-51",2319,0,0
4,1112,"UNIBRA",Recife,"RUA JOAQUIM FELIPE   , 250","BOA VISTA","10, 11, 12, 13, 14, 15, 16, 17, 18, 19, 24, 25, 26, 27, 28, 29, 30, 31, 58, 59, 60, 61, 62, 63, 152, 157, 198, 205, 217, 378","10-156, 11-159, 12-156, 13-153, 14-154, 15-157, 16-157, 17-157, 18-154, 19-160, 24-155, 25-157, 26-158, 27-156, 28-154, 29-158, 30-157, 31-155, 58-375, 59-378, 60-381, 61-387, 62-376, 63-385, 152-162, 157-379, 198-258, 205-261, 217-259, 378-72",6486,-8.0527369,-34.8918406
5,1430,"APAE - ASSOCIAÇÃO DE PAIS E AMIGOS DOS EXCEPCIONAIS",Recife,"ESTRADA DO ARRAIAL, 4744","CASA AMARELA","1, 2, 3, 4, 5, 267","1-215, 2-213, 3-213, 4-214, 5-214, 267-214",1283,-8.02776,-34.92460167
5,1686,"CENTRO DE ATIVIDADES DOMÉSTICAS - CAD",Recife,"RUA FRANCISCO LACERDA, 440","VARZEA","428, 429, 430, 431, 432, 433","428-381, 429-380, 430-382, 431-383, 432-380, 433-380",2286,-8.05072622,-34.95859656
5,1660,"CENTRO DE CIÊNCIAS SOCIAIS APLICADAS - CCSA - UFPE",Recife,"AV. DOS ECONOMISTAS, S/N","CIDADE UNIVERSITARIA","409, 410, 411, 412, 413, 414, 415, 416, 417, 418, 419, 420, 421, 422","409-381, 410-385, 411-381, 412-383, 413-383, 414-383, 415-381, 416-383, 417-383, 418-382, 419-383, 420-384, 421-386, 422-382",5360,-8.04848665,-34.95092189
5,1783,"CENTRO DE CIÊNCIAS SOCIAIS APLICADAS - UFPE - VOTO EM TRÂNSITO",Recife,"AV. DOS ECONOMISTAS, S/N","CIDADE UNIVERSITARIA","509, 516, 517","509-0, 516-0, 517-0",0,-8.04902741,-34.95098851
5,1651,"CENTRO DE EDUCAÇÃO DA UFPE",Recife,"AV. ACADÊMICO HÉLIO RAMOS, S/N","CIDADE UNIVERSITARIA","401, 402, 403, 404, 405, 406, 407, 408","401-395, 402-399, 403-394, 404-394, 405-398, 406-397, 407-397, 408-392",3166,-8.04876065,-34.95326951
5,1465,"CENTRO DE ENSINO DE CIÊNCIAS AGRÁRIAS - CEAGRI - UFRPE",Recife,"RUA DOM MANUEL DE MEDEIROS, S/N","DOIS IRMAOS","275, 281, 285, 294, 510, 515","275-372, 281-368, 285-375, 294-364, 510-357, 515-357",2193,-8.017815,-34.944095
5,1236,"CENTRO DE ENSINO DE GRADUAÇÃO - CEGOE - UFRPE",Recife,"RUA DOM MANUEL DE MEDEIROS, S/N","DOIS IRMAOS","144, 147, 151, 158, 165, 181, 207, 220, 229, 238, 252","144-394, 147-397, 151-396, 158-393, 165-394, 181-397, 207-395, 220-399, 229-396, 238-391, 252-392",4344,-8.01834333,-34.95077833
5,1279,"CENTRO DE REABILITAÇÃO E EDUCAÇÃO ESPECIAL",Recife,"RUA CONSELHEIRO NABUCO, S/N","CASA AMARELA","16, 17, 18, 19, 20, 183, 202, 228","16-149, 17-148, 18-149, 19-149, 20-149, 183-182, 202-147, 228-188",1261,-8.02842167,-34.91835333
5,1473,"CENTRO ESCOLAR CAROCHINHA",Recife,"RUA DO CHACON, 245","CASA FORTE","169, 174, 198, 218, 255, 264, 266, 272, 276, 295","169-345, 174-347, 198-349, 218-345, 255-346, 264-346, 266-346, 272-347, 276-344, 295-347",3462,-8.03952833,-34.9199
5,1341,"CMEI - DONA CARMELITA MUNIZ DE ARAÚJO",Recife,"ESTRADA DA MUMBECA, 100, BOLA NA REDE","GUABIRABA","199, 200, 201, 260, 523","199-382, 200-386, 201-390, 260-393, 523-107",1658,-7.964845,-34.92313167
5,1830,"COLÉGIO ASM (ANTIGO SAGRADA FAMÍLIA)",Recife,"PRAÇA DE CASA FORTE, 52","CASA FORTE","30, 31, 32, 33, 34, 35, 36","30-379, 31-379, 32-379, 33-383, 34-382, 35-382, 36-382",2666,-8.032995,-34.9188788
5,1333,"COLÉGIO E CURSO - DESAFIO",Recife,"RUA PROFESSOR ANTONIO COELHO, 6O","CIDADE UNIVERSITARIA","188, 219, 246, 265, 282, 511","188-376, 219-371, 246-376, 265-374, 282-377, 511-373",2247,-8.03853,-34.94386667
5,1805,"COLÉGIO ETHOS",Recife,"RUA OLIVEIRA GÓES","POÇO DA PANELA","62, 63, 64, 137, 520","62-345, 63-346, 64-344, 137-344, 520-179",1558,-8.0388292,-34.9202832
5,1244,"COLÉGIO MOTIVO (ANTIGO MATER CHRISTI)",Recife,"AVENIDA DEZESSETE DE AGOSTO, 1872","CASA FORTE","179, 197, 216, 225, 232, 237, 245, 249, 254, 288","179-393, 197-394, 216-385, 225-395, 232-394, 237-395, 245-399, 249-398, 254-395, 288-391",3939,-8.03261333,-34.92307667
5,1066,"COLÉGIO MURAKAMI (ANTIGO NAP)",Recife,"ESTRADA DAS UBAIAS, 487","CASA FORTE","37, 38, 39, 40, 41, 65, 66, 67","37-381, 38-378, 39-381, 40-381, 41-383, 65-378, 66-383, 67-379",3044,-8.0323696,-34.9195133
5,1740,"CRECHE MUNICIPAL FLOR DO BAIRRO DA GUABIRABA",Recife,"RUA CASSITERITA, S/N","BREJO DA GUABIRABA","489, 490, 491, 513, 514","489-377, 490-378, 491-366, 513-353, 514-297",1771,-7.99314895,-34.93613745
5,1732,"DEPARTAMENTO DE HOTELARIA E TURISMO - UFPE",Recife,"AV. ACADÊMICO HÉLIO RAMOS, S/N","CIDADE UNIVERSITARIA","478, 479, 480, 481, 482, 483, 484, 485, 486, 487, 488","478-306, 479-304, 480-307, 481-306, 482-303, 483-309, 484-307, 485-306, 486-305, 487-307, 488-305",3365,-8.04956915,-34.95389165
5,1627,"EDUCANDÁRIO MAGALHÃES BASTOS",Recife,"RUA FRANCISCO LACERDA, SN","VARZEA","379, 380, 381, 382, 383, 384, 385, 386","379-397, 380-389, 381-395, 382-397, 383-396, 384-394, 385-394, 386-394",3156,-8.04696849,-34.95728518
5,1180,"EREM PROFESSOR CÂNDIDO DUARTE (PRÓX ABO ASS. BRA. ODONTOLOGIA)",Recife,"RUA DOIS IRMÃOS","APIPUCOS","59, 60, 61, 129, 139, 211, 257","59-368, 60-366, 61-364, 129-366, 139-363, 211-364, 257-366",2557,-8.020885,-34.93889
5,1562,"ESCOLA ERUNDINA NEGREIROS DE ARAUJO",Recife,"RUA ERUNDINA NEGREIROS DE ARAUJO SN","CASA AMARELA","349, 350, 351, 352, 353, 354, 355","349-386, 350-392, 351-385, 352-387, 353-384, 354-388, 355-385",2707,-8.00695833,-34.93628667
5,1023,"ESCOLA ESTADUAL DOM VITAL",Recife,"ESTRADA DO ARRAIAL, S/N","CASA AMARELA","6, 7, 8, 9, 10, 11, 12, 13, 14, 15","6-391, 7-387, 8-395, 9-396, 10-390, 11-390, 12-396, 13-383, 14-393, 15-390",3911,-8.026995,-34.91828333
5,1619,"ESCOLA ESTADUAL MARIA DA CONCEIÇÃO DO REGO BARROS LACERDA",Recife,"RUA VALE DO JAGUARIBE,  S/N","UR-7 VARZEA","365, 366, 367, 368, 369, 370, 371, 372, 373, 374, 375, 376, 377, 378","365-373, 366-371, 367-373, 368-378, 369-376, 370-380, 371-378, 372-373, 373-368, 374-373, 375-376, 376-379, 377-377, 378-373",5248,-8.03679923,-34.97601004
5,1694,"ESCOLA ESTADUAL PROFESSOR CÂNDIDO DUARTE",Recife,"PRAÇA PINTO DAMASIO, S/N","VARZEA","434, 435, 436, 518","434-375, 435-374, 436-379, 518-245",1373,-8.04790164,-34.95903161
5,1082,"ESCOLA ESTADUAL SILVA JARDIM",Recife,"AV. DEZESSETE DE AGOSTO, 2727 - PRAÇA DO MONTEIRO","MONTEIRO","47, 48, 49, 50, 51, 52, 53, 54, 55, 56, 57, 58, 132, 175, 204","47-330, 48-331, 49-331, 50-328, 51-331, 52-329, 53-330, 54-326, 55-331, 56-328, 57-332, 58-329, 132-328, 175-328, 204-331",4943,-8.02816167,-34.928145
5,1309,"ESCOLA MAURICIO DE NASSAU",Recife,"AV. DR. EURICO CHAVES, 677","CASA AMARELA","185, 231, 258, 277, 293","185-357, 231-350, 258-350, 277-354, 293-355",1766,-8.02278818,-34.92593426
5,1813,"ESCOLA MUNICIPAL ALTO DA GUABIRABA",Recife,"RUA PRES. COSTA E SILVA, 250","BREJO DA GUABIRABA","522","522-111",111,-7.991901,-34.9334445
5,1228,"ESCOLA MUNICIPAL CÉLIA ARRAES",Recife,"RUA JOSÉ NOYA, S/N","VARZEA","170, 173, 194, 217, 244","170-396, 173-395, 194-402, 217-390, 244-391",1974,-8.0390585,-34.95865155
5,1678,"ESCOLA MUNICIPAL DA GUABIRABA",Recife,"RUA CASSITERITA, 395-B","BREJO DA GUABIRABA","423, 424, 425, 426, 427","423-388, 424-390, 425-386, 426-390, 427-385",1939,-7.99353798,-34.93525553
5,1392,"ESCOLA MUNICIPAL DIVINO ESPÍRITO SANTO",Recife,"PRAÇA DA CAXANGÁ, 127","VARZEA","186, 193, 205, 210, 236, 241, 251, 263, 512, 524","186-387, 193-391, 205-387, 210-385, 236-386, 241-385, 251-401, 263-386, 512-379, 524-147",3634,-8.03085015,-34.95472056
5,1821,"ESCOLA MUNICIPAL PEDRO ALCÂNTARA",Recife,"RUA TRÊS MORROS, 950","CORREGO DO JENIPAPO","521","521-63",63,-8.0026311,-34.9376778
5,1635,"ESCOLA MUNICIPAL PROFESSOR JOÃO BATISTA LIPO NETO",Recife,"RUA AFONSO FERREIRA MAIA, S/N","VARZEA","387, 388, 389, 390, 519","387-387, 388-380, 389-381, 390-384, 519-68",1600,-8.03564373,-34.99002585
5,1767,"ESCOLA MUNICIPAL PROFESSOR JOÃO FRANCISCO DE SOUZA",Recife,"RUA EXPEDICIONÁRIO JORGE DA COSTA LIMA, 31","UR-7 VARZEA","502, 503, 504, 505, 506, 507","502-389, 503-388, 504-391, 505-390, 506-387, 507-389",2334,-8.037081,-34.97336074
5,1104,"ESCOLA MUNICIPAL PROFESSOR NILO PEREIRA",Recife,"ESTRADA DO ARRAIAL, 4900","CASA AMARELA","143, 152, 157, 161, 182, 234","143-251, 152-252, 157-253, 161-253, 182-250, 234-251",1510,-8.02764167,-34.92552667
5,1252,"ESCOLA MUNICIPAL ZUMBI DOS PALMARES",Recife,"RUA ENGENHEIRO VASCONCELOS BITTENCOURT, 35","BRASILIT","178, 190, 215, 233, 508","178-392, 190-400, 215-395, 233-392, 508-396",1975,-8.04080939,-34.95187514
5,1139,"ESCOLA OLINTO VICTOR",Recife,"AV. AFONSO OLINDENSE, 153","VARZEA","84, 85, 86, 87, 88, 89, 90, 149, 209","84-393, 85-395, 86-396, 87-395, 88-393, 89-391, 90-395, 149-398, 209-393",3549,-8.03259116,-34.95563879
5,1643,"ESCOLA SAO CRISTOVAO",Recife,"RUA CASSITERITA, 395-A","BREJO DA GUABIRABA","391, 392, 393, 394, 395, 396, 397, 398, 399, 400","391-386, 392-389, 393-387, 394-386, 395-387, 396-386, 397-388, 398-396, 399-392, 400-386",3883,-7.99371049,-34.93556881
5,1325,"ESCOLA SÃO MIGUEL",Recife,"SEGUNDA TRAVESSA DA RUA DO SIRIJI,  S/N, ALTO DO MANDU","CASA AMARELA","184, 222, 261, 278, 291","184-366, 222-365, 261-367, 278-366, 291-363",1827,-8.02422959,-34.92917646
5,1724,"ESCOLA SENADOR NOVAES FILHO",Recife,"RUA DONA MARIA LACERDA, S/N","VARZEA","464, 465, 466, 467, 468, 469, 470, 471, 472, 473, 474, 475, 476, 477","464-368, 465-368, 466-363, 467-366, 468-361, 469-360, 470-370, 471-370, 472-357, 473-362, 474-364, 475-365, 476-370, 477-368",5112,-8.0484036,-34.96185037
5,1759,"ESCOLA TOME GIBSON",Recife,"AV. VEREADOR OTACILIO DE AZEVEDO, S/N","GUABIRABA","492, 493, 494, 495, 496, 497, 498, 499, 500, 501","492-383, 493-394, 494-393, 495-392, 496-392, 497-391, 498-385, 499-390, 500-392, 501-387",3899,-7.99211047,-34.93544565
5,1708,"INSTITUTO SANTA MARIA MAZZARELLO - I",Recife,"AV. AFONSO OLINDENSE, 1553","VARZEA","437, 438, 439, 440, 441, 442, 443, 444, 445, 446, 447, 448, 449, 450, 451","437-394, 438-394, 439-395, 440-395, 441-394, 442-395, 443-390, 444-395, 445-397, 446-393, 447-394, 448-395, 449-396, 450-395, 451-389",5911,-8.04464218,-34.95898251
5,1716,"INSTITUTO SANTA MARIA MAZZARELLO - II",Recife,"AV. AFONSO OLINDENSE, 1667","VARZEA","452, 453, 454, 455, 456, 457, 458, 459, 460, 461, 462, 463","452-392, 453-399, 454-392, 455-397, 456-397, 457-396, 458-396, 459-395, 460-394, 461-397, 462-398, 463-411",4764,-8.04545336,-34.95929206
6,1350,"ASSOC. DOS AUDITORES DO TESOURO ESTADUAL",Recife,"AV. VER. OTACILIO DE AZEVEDO, S/N","NOVA DESCOBERTA","212, 213, 214, 215, 216, 236, 268, 269, 273","212-340, 213-343, 214-340, 215-338, 216-342, 236-338, 268-342, 269-341, 273-339",3063,-8.0035653,-34.9178564
6,1368,"ASSOC. EVANG. LUTERANA DE EDUC. ESPECIAL",Recife,"RUA DES. MOTA JUNIOR, 59","CASA AMARELA","259, 263","259-297, 263-300",597,-8.0260939,-34.911044
6,1767,"CERVAC (CENTRO DE REABILITAÇÃO E VALORIZAÇÃO DA CRIANÇA)",Recife,"RUA MORRO DA CONCEIÇÃO","MORRO DA CONCEICAO","201, 254, 480","201-377, 254-380, 480-247",1004,-8.0203395,-34.9130157
6,1724,"CMEI (MÉRCIA MARIA BEZERRA COSTA)",Recife,"AV. VEREADOR OTACÍLIO DE AZEVEDO, 1030","NOVA DESCOBERTA","382, 383, 384, 385, 386, 387, 388, 389","382-337, 383-333, 384-331, 385-333, 386-336, 387-330, 388-328, 389-330",2658,-8.005149,-34.9154638
6,1619,"COLÉGIO APOIO",Recife,"RUA CONSELHEIRO NABUCO, 44","CASA AMARELA","72, 73, 74, 235, 237, 238, 434, 435, 436, 437","72-351, 73-349, 74-352, 235-350, 237-350, 238-352, 434-352, 435-354, 436-350, 437-352",3512,-8.0303588,-34.9143646
6,1805,"COLEGIO MADRE DE DEUS CAMPUS IV",Recife,"ESTRADA DO ARRAIAL, N 3460","CASA AMARELA","332, 340, 343, 344, 347, 349, 351, 358, 359, 361, 362","332-341, 340-343, 343-341, 344-342, 347-342, 349-342, 351-344, 358-343, 359-342, 361-340, 362-344",3764,-8.0277057,-34.9132099
6,1716,"COLÉGIO REINO MÁGICO",Recife,"ESTRADA DO ARRAIAL, 2949","CASA AMARELA","451, 452, 453, 454, 455, 456, 457, 458","451-211, 452-213, 453-213, 454-211, 455-213, 456-215, 457-215, 458-211",1702,-8.0290127,-34.9087953
6,1023,"COLEGIO SANTA CATARINA",Recife,"ESTRADA DO ARRAIAL, 2740","CASA AMARELA","8, 9, 10, 11, 12, 13, 14, 15, 16, 17, 18, 19, 20, 21","8-366, 9-365, 10-367, 11-370, 12-365, 13-366, 14-366, 15-364, 16-370, 17-367, 18-367, 19-366, 20-369, 21-367",5135,-8.0304454,-34.9075277
6,1740,"EREM POMPÉIA CAMPOS",Recife,"AV. NORTE MIGUEL DE ARRAES DE ALENCAR","MACAXEIRA","122, 123, 233, 240, 357","122-372, 123-372, 233-371, 240-371, 357-374",1860,-8.0149927,-34.9314343
6,1562,"ESCOLA CORONEL OTHON",Recife,"RUA IDA, S/N","MACAXEIRA","369, 370, 371, 372, 373, 374, 375, 376, 377, 378, 379, 380, 381","369-398, 370-391, 371-394, 372-393, 373-394, 374-395, 375-395, 376-395, 377-393, 378-396, 379-393, 380-394, 381-393",5124,-8.0159375,-34.9283457
6,1147,"ESCOLA DE PRIMEIRO GRAU ADERBAL GALVAO",Recife,"RUA VASCO DA GAMA, SN","VASCO DA GAMA","257, 262, 270, 315, 321","257-394, 262-397, 270-398, 315-395, 321-400",1984,-8.0173273,-34.921496
6,1031,"ESCOLA ESTADUAL AGEU MAGALHAES",Recife,"ESTRADA DO ARRAIAL, 3208","CASA AMARELA","22, 23, 24, 25, 26, 27, 226, 227, 228","22-318, 23-318, 24-317, 25-311, 26-313, 27-316, 226-319, 227-318, 228-318",2848,-8.028025,-34.9104788
6,1597,"ESCOLA ESTADUAL ALVARO LINS",Recife,"AV. VER. OTACILIO DE AZEVEDO, SN","NOVA DESCOBERTA","401, 402, 403, 404, 405, 406, 407, 408, 409, 410, 411, 412, 413, 414, 415, 416, 417, 418, 419","401-394, 402-395, 403-394, 404-397, 405-397, 406-396, 407-391, 408-391, 409-391, 410-393, 411-395, 412-397, 413-395, 414-394, 415-392, 416-392, 417-393, 418-391, 419-410",7498,-7.9996364,-34.9228613
6,1120,"ESCOLA ESTADUAL CLOTILDE DE OLIVEIRA",Recife,"AV NORTE, 6760","NOVA DESCOBERTA","111, 112, 113, 114, 115, 116, 117, 118, 119, 120, 121","111-395, 112-395, 113-394, 114-418, 115-393, 116-395, 117-392, 118-393, 119-393, 120-395, 121-395",4358,-8.0199265,-34.9258204
6,1040,"ESCOLA ESTADUAL DOM BOSCO",Recife,"ESTRADA DO ARRAIAL, 3208","CASA AMARELA","28, 29, 30, 31, 32, 33, 34, 35, 36, 37, 38, 39","28-361, 29-370, 30-368, 31-366, 32-368, 33-368, 34-367, 35-367, 36-362, 37-369, 38-364, 39-368",4398,-8.028214,-34.9107212
6,1058,"ESCOLA ESTADUAL MATIAS DE ALBUQUERQUE",Recife,"RUA FERNANDO DE SOUSA CAETE, SN           ","CASA AMARELA","40, 41, 42, 43, 44, 45","40-353, 41-350, 42-347, 43-351, 44-348, 45-349",2098,-8.0238447,-34.9134947
6,1066,"ESCOLA GOV. CARLOS DE LIMA CAVALCANTI",Recife,"RUA DES MOTA JUNIOR, 120","CASA AMARELA","46, 47, 48, 49, 50, 51, 52, 53, 54, 55, 56, 57, 284, 303, 307","46-250, 47-249, 48-247, 49-250, 50-250, 51-247, 52-254, 53-249, 54-247, 55-252, 56-251, 57-247, 284-258, 303-259, 307-274",3784,-8.0263212,-34.9108286
6,1554,"ESCOLA MARIA AMÁLIA",Recife,"AVENIDA NORTE, 7750","MACAXEIRA","364, 365, 366, 367, 368, 479","364-374, 365-377, 366-370, 367-373, 368-372, 479-374",2240,-8.013778,-34.9313705
6,1678,"ESCOLA MUNICIPAL ABEL GUEIROS",Recife,"AV. NORTE, 7696","MACAXEIRA","459, 460, 461, 462, 463","459-327, 460-324, 461-325, 462-323, 463-322",1621,-8.0147192,-34.9313208
6,1520,"ESCOLA MUNICIPAL CHICO SCIENCE",Recife,"RUA CATIGUÁ, 112","VASCO DA GAMA","312, 316, 326, 363","312-307, 316-303, 326-231, 363-171",1012,-8.0129886,-34.920726
6,1635,"ESCOLA MUNICIPAL DE CASA AMARELA",Recife,"CORREGO DA AREIA,  287","NOVA DESCOBERTA","439, 440, 441, 442","439-396, 440-396, 441-397, 442-397",1586,-8.0007059,-34.9259155
6,1783,"ESCOLA MUNICIPAL JÚLIO VICENTE ALVES DE ARAÚJO",Recife,"RUA MORRO DA CONCEIÇÃO, N 468","MORRO DA CONCEICAO","199, 200","199-396, 200-395",791,-8.0192239,-34.9149331
6,1155,"ESCOLA MUNICIPAL PROF ALMERINDA UMBELINO DE BARROS",Recife,"RUA VASCO DA GAMA SN","VASCO DA GAMA","148, 149, 150, 151, 152, 153, 154, 155, 156, 157, 158","148-342, 149-343, 150-340, 151-342, 152-342, 153-338, 154-343, 155-344, 156-341, 157-339, 158-344",3758,-8.0100494,-34.9209206
6,1694,"ESCOLA MUNICIPAL PROF. MAURO MOTA",Recife,"ALTO DA BRASILEIRA, S/N","NOVA DESCOBERTA","468, 469, 470, 471, 472, 473, 474, 475","468-400, 469-397, 470-398, 471-391, 472-389, 473-395, 474-393, 475-392",3155,-8.000239,-34.9309263
6,1465,"ESCOLA MUNICIPAL ROZEMAR DE MACEDO LIMA",Recife,"AV. NORTE, 5400","CASA AMARELA","330, 331, 341, 353, 355","330-157, 331-301, 341-308, 353-204, 355-201",1171,-8.0230309,-34.9133875
6,1511,"ESCOLA MUNICIPAL SANTA MARIA GORETTI",Recife,"RUA SANTA MARIA GORETTI, 300","VASCO DA GAMA","124, 125, 241, 255, 356, 360","124-260, 125-260, 241-259, 255-258, 356-305, 360-261",1603,-8.0112391,-34.9182972
6,1600,"ESCOLA NADIR COLACO",Recife,"RUA IDA, S/N","MACAXEIRA","420, 421, 422, 423, 424, 425, 426, 427, 428, 429, 430, 431, 432, 433","420-385, 421-382, 422-378, 423-384, 424-382, 425-381, 426-386, 427-382, 428-383, 429-383, 430-381, 431-384, 432-382, 433-378",5351,-8.0171853,-34.9286164
6,1082,"ESCOLA PADRE MACHADO",Recife,"RUA NEREU GUERRA,  92","CASA AMARELA","64, 65, 66, 67, 68, 69, 70, 71, 221, 279, 301, 319, 322, 325, 337","64-313, 65-316, 66-312, 67-313, 68-313, 69-314, 70-309, 71-314, 221-313, 279-313, 301-310, 319-313, 322-314, 325-318, 337-310",4695,-8.0260547,-34.9135129
6,1651,"ESCOLA POETA JOAQUIM CARDOSO",Recife,"RUA CORREGO DA AREIA , S/N","NOVA DESCOBERTA","448, 449, 450","448-394, 449-397, 450-400",1191,-8.001363,-34.9310164
6,1406,"ESCOLA PROFISSIONALIZANTE DOM BOSCO",Recife,"ESTRADA DO ARRAIAL, 2900","CASA AMARELA","313, 323, 328, 333","313-350, 323-349, 328-242, 333-341",1282,-8.0293758,-34.9084521
6,1210,"ESCOLA REUNIDA PADRE JOAO BARBOSA",Recife,"PRACA DO MORRO DA CONCEICAO, S/N","MORRO DA CONCEICAO","173, 174, 175, 239","173-398, 174-398, 175-395, 239-397",1588,-8.0189771,-34.9160131
6,1589,"ESCOLA ROTARY DE NOVA DESCOBERTA",Recife,"AVENIDA VER. OTACILIO DE AZEVEDO, S/N","NOVA DESCOBERTA","390, 391, 392, 393, 394, 395, 396, 397, 398, 399, 400","390-400, 391-396, 392-397, 393-398, 394-396, 395-395, 396-398, 397-398, 398-396, 399-395, 400-405",4374,-7.9990845,-34.9238316
6,1686,"ESCOLA TÉCNICA ESTADUAL MIGUEL BATISTA",Recife,"AVENIDA NORTE, 7487","MACAXEIRA","438, 464, 465, 466, 467, 478","438-354, 464-351, 465-356, 466-352, 467-355, 478-355",2123,-8.0142622,-34.9315337
6,1341,"ESCOLA TREZE DE MAIO - GILBERTO FREIRE",Recife,"RUA TREZE DE MAIO, SN","VASCO DA GAMA","203, 204, 205, 206, 207, 208, 209, 210, 211","203-395, 204-389, 205-390, 206-390, 207-391, 208-393, 209-391, 210-389, 211-394",3522,-8.0127213,-34.9231998
6,1775,"ESCOLA VILA SEZAMO",Recife,"RUA DA HARMONIA, 566","CASA AMARELA","260, 264, 265, 304, 308, 310","260-344, 264-348, 265-353, 304-345, 308-348, 310-344",2082,-8.0286721,-34.9144157
6,1643,"GRUPO ESCOLAR MOACIR DE ALBUQUERQUE",Recife,"RUA CORREGO DA AREIA S/N                 ","NOVA DESCOBERTA","443, 444, 445, 446, 447","443-399, 444-400, 445-397, 446-397, 447-400",1993,-8.0016097,-34.925288
6,1791,"SECRETARIA EXECUTIVA DE COMÉRCIO POPULAR- SECPOP",Recife,"RUA FERNANDO DE SOUZA CAETÉ, S/N","CASA AMARELA","339, 346, 348, 350","339-329, 346-338, 348-321, 350-329",1317,-8.0232201,-34.9149842
6,1163,"SESI",Recife,"RUA VASCO DA GAMA, SN","VASCO DA GAMA","159, 160, 161, 162, 163, 164, 165, 166, 167, 168, 169, 170, 171, 172","159-396, 160-396, 161-396, 162-396, 163-394, 164-395, 165-397, 166-396, 167-388, 168-396, 169-396, 170-397, 171-393, 172-396",5532,-8.0189622,-34.9213001
7,1473,"CAIC/TORRE-ESCOLA CREUZA BARRETO DORNELAS CÂMARA",Recife,"RUA CANTORA CLARA NUNES, S/N","TORRE","306, 307, 315, 320, 330, 338, 366, 375","306-389, 307-390, 315-392, 320-389, 330-385, 338-392, 366-390, 375-388",3115,-8.04485338,-34.91694771
7,1490,"CECOSNE",Recife,"RUA JOSÉ OSÓRIO, N 124","MADALENA","174, 175, 176, 177, 178, 179, 180, 181, 182, 183, 331, 368, 371, 373","174-393, 175-396, 176-396, 177-399, 178-396, 179-397, 180-398, 181-396, 182-394, 183-397, 331-399, 368-397, 371-394, 373-394",5546,-8.05316474,-34.90553639
7,1538,"CENTRO DE FORMAÇÃO DE EDUCADORES PROFESSOR PAULO FREIRE",Recife,"RUA REAL DA TORRE, N 299","MADALENA","329, 335, 339, 343, 348, 355, 357, 360, 458, 463","329-393, 335-396, 339-392, 343-391, 348-394, 355-402, 357-395, 360-393, 458-390, 463-393",3939,-8.05408148,-34.90943556
7,1708,"CFI - COLÉGIO DE FORMAÇÃO INTEGRAL",Recife,"AVENIDA CAXANGÁ, 460","MADALENA","304, 308, 313, 318, 323, 326, 345, 349","304-385, 308-386, 313-386, 318-387, 323-384, 326-380, 345-382, 349-384",3074,-8.0547694,-34.9129511
7,1694,"CMEI DARCY RIBEIRO",Recife,"RUA ODETE MONTEIRO, 450","CORDEIRO","24, 25, 26, 27, 231","24-366, 25-367, 26-369, 27-369, 231-367",1838,-8.0461834,-34.92055
7,1570,"COLÉGIO E CURSO GGE (BENFICA)",Recife,"RUA BENFICA, N 286/314","MADALENA","376, 377, 378, 379, 380, 381, 382, 383, 384, 385, 386","376-239, 377-240, 378-237, 379-236, 380-238, 381-236, 382-236, 383-240, 384-237, 385-238, 386-238",2615,-8.05917918,-34.90186883
7,1430,"COLÉGIO EQUIPE",Recife,"RUA DEMÓSTENES DE OLINDA, N 121","MADALENA","288, 294, 300, 302, 310, 316, 322, 327, 347","288-398, 294-397, 300-398, 302-397, 310-398, 316-394, 322-399, 327-419, 347-397",3597,-8.04987881,-34.90551491
7,1651,"COLÉGIO EQUIPE (ANEXO I)",Recife,"RUA DEMÓSTENES DE OLINDA, N 138","MADALENA","461, 465","461-392, 465-394",786,-8.0497014,-34.9054182
7,1716,"COLÉGIO EQUIPE (ANEXO II)",Recife,"RUA DEMÓSTENES DE OLINDA, N 152","MADALENA","361, 364","361-396, 364-397",793,-8.0498842,-34.9052151
7,1210,"COLÉGIO JOAQUIM TÁVORA",Recife,"RUA REAL DA TORRE, S/N","MADALENA","141, 142, 143, 144, 145, 146, 151, 152, 153, 199, 234, 285, 289","141-395, 142-397, 143-398, 144-398, 145-398, 146-395, 151-394, 152-394, 153-391, 199-394, 234-393, 285-395, 289-394",5136,-8.0553556,-34.90892749
7,1309,"COLÉGIO SOUZA LEÃO",Recife,"RUA RONDÔNIA, N 46","CORDEIRO","184, 185, 186, 187, 188, 189, 190, 191, 346, 352","184-398, 185-395, 186-396, 187-394, 188-395, 189-395, 190-394, 191-397, 346-391, 352-420",3975,-8.05418814,-34.92034205
7,1643,"CRECHE MUNICIPAL CASINHA AZUL",Recife,"RUA SÃO MATEUS, S/N","IPUTINGA","370, 459, 464","370-393, 459-394, 464-391",1178,-8.0300517,-34.9341829
7,1732,"CRECHE MUNICIPAL MENINO JESUS DA BOMBA GRANDE",Recife,"RUA NOSSA SENHORA DA SAÚDE, N 669","CORDEIRO","321, 460","321-384, 460-389",773,-8.0419163,-34.9281461
7,1724,"CRECHE MUNICIPAL SÍTIO DO CARDOSO",Recife,"RUA PADRE LANDIM, N  89","TORRE","163, 164, 165, 241, 276","163-393, 164-388, 165-390, 241-386, 276-381",1938,-8.0493045,-34.9123229
7,1511,"ESCOLA AVENTURAS DO PINÓQUIO",Recife,"RUA PADRE DIAS MARTINS, N 201","ZUMBI","195, 251, 334","195-397, 251-396, 334-401",1194,-8.05481434,-34.91932557
7,1619,"ESCOLA BARROS CARVALHO",Recife,"RUA HONÓRIO CORREIA, N 167","CORDEIRO","417, 418, 419, 420, 421, 422, 423, 424, 425, 426, 427, 428, 429","417-354, 418-354, 419-353, 420-353, 421-358, 422-357, 423-353, 424-352, 425-354, 426-356, 427-357, 428-351, 429-353",4605,-8.05244668,-34.92126302
7,1376,"ESCOLA JOAQUIM XAVIER DE BRITO",Recife,"RUA CORDISLÂNDIA, N 1120","IPUTINGA","102, 103, 104, 192, 197, 206, 221, 293, 299","102-397, 103-396, 104-394, 192-393, 197-391, 206-393, 221-395, 293-395, 299-422",3576,-8.04154508,-34.93131484
7,1279,"ESCOLA MACIEL PINHEIRO",Recife,"PRAÇA PROFESSOR BARRETO CAMPÊLO, S/N","TORRE","166, 167, 168, 198, 203, 264","166-393, 167-398, 168-396, 198-392, 203-394, 264-400",2373,-8.0467114,-34.9134651
7,1457,"ESCOLA MARTINS JÚNIOR",Recife,"RUA PADRE JOSÉ REGUEIRA, S/N","TORRE","286, 291, 296, 298, 301","286-403, 291-396, 296-397, 298-390, 301-391",1977,-8.04755094,-34.91321511
7,1449,"ESCOLA MUNICIPAL DA IPUTINGA",Recife,"RUA CORONEL FERNANDO FURTADO, N 479","IPUTINGA","215, 216, 217, 218, 287, 297, 303, 309, 312, 317, 319, 467","215-388, 216-387, 217-388, 218-394, 287-381, 297-384, 303-386, 309-380, 312-388, 317-385, 319-387, 467-163",4411,-8.04185265,-34.92838621
7,1015,"ESCOLA MUNICIPAL DARCY RIBEIRO",Recife,"RUA ODETE MONTEIRO, N 384","CORDEIRO","1, 2, 3, 4, 5, 6, 7, 8, 22, 23, 29, 48, 49, 52, 53, 54","1-342, 2-339, 3-344, 4-339, 5-337, 6-338, 7-340, 8-345, 22-338, 23-339, 29-392, 48-397, 49-395, 52-396, 53-393, 54-392",5766,-8.04610127,-34.92063457
7,1171,"ESCOLA MUNICIPAL DINÁ DE OLIVEIRA",Recife,"RUA SAO MATEUS, S/N","IPUTINGA","245, 246, 250, 253, 258, 261, 273, 274, 295, 305, 311, 324, 328, 466","245-390, 246-392, 250-388, 253-388, 258-384, 261-389, 273-391, 274-385, 295-387, 305-447, 311-386, 324-385, 328-389, 466-387",5488,-8.03024895,-34.93461503
7,1546,"ESCOLA MUNICIPAL EBENEZER GUEIROS",Recife,"RUA DR. ALUÍSIO BALTAR, N 69","IPUTINGA","333, 336, 337, 340, 342, 351, 455","333-392, 336-396, 337-393, 340-391, 342-397, 351-392, 455-392",2753,-8.0371194,-34.93297557
7,1554,"ESCOLA MUNICIPAL JOÃO XXIII",Recife,"ESTRADA DO CAIARA, N 350","IPUTINGA","350, 353, 354, 356, 358, 359, 365, 369","350-393, 353-389, 354-391, 356-394, 358-396, 359-391, 365-391, 369-391",3136,-8.04167202,-34.93051766
7,1600,"ESCOLA MUNICIPAL MÉRCIA DE ALBUQUERQUE FERREIRA",Recife,"RUA TABAIARES, N 182","ILHA DO RETIRO","414, 415, 416, 457","414-353, 415-229, 416-352, 457-229",1163,-8.06556128,-34.9063465
7,1562,"ESCOLA MUNICIPAL PAROQUIAL CRISTO REI",Recife,"RUA DOM MANOEL DA COSTA, S/N","TORRE","362, 367, 456","362-393, 367-398, 456-397",1188,-8.0477988,-34.91247928
7,1660,"ESCOLA MUNICIPAL SÃO DOMINGOS",Recife,"RUA SÃO MATEUS, 364","IPUTINGA","292, 462","292-398, 462-393",791,-8.0384917,-34.9359089
7,1481,"ESCOLA MUNICIPAL VILA SANTA LUZIA",Recife,"RUA ELIZEU CAVALCANTI, N 52","CORDEIRO","314, 325, 341, 363, 372","314-314, 325-314, 341-315, 363-316, 372-316",1575,-8.0493728,-34.92116221
7,1155,"ESCOLA PADRE DEHON",Recife,"AVENIDA CAXANGÁ, N 3560","IPUTINGA","105, 106, 107, 108, 109, 110, 111, 112, 113, 114, 284, 290","105-394, 106-394, 107-389, 108-391, 109-393, 110-393, 111-397, 112-395, 113-395, 114-392, 284-412, 290-392",4737,-8.04126291,-34.93753573
7,1236,"ESCOLA POLITÉCNICA",Recife,"RUA BENEDITO MONTEIRO, N 50","MADALENA","135, 136, 137, 138, 139, 140, 147","135-321, 136-321, 137-326, 138-324, 139-323, 140-324, 147-322",2261,-8.05914924,-34.90366192
7,1589,"FACULDADE ESTÁCIO (ANTIGA FIR)",Recife,"AV. ENG. ABDIAS DE CARVALHO, N 1678","MADALENA","387, 388, 390, 392, 394, 396, 398, 400, 402, 404, 406, 408, 410, 412","387-285, 388-281, 390-285, 392-285, 394-286, 396-281, 398-284, 400-286, 402-287, 404-285, 406-283, 408-281, 410-305, 412-282",3996,-8.06229953,-34.9167451
7,1503,"FACULDADE SANTA HELENA",Recife,"AV. CAXANGÁ, N 990","MADALENA","169, 170, 171, 172, 173, 204, 213, 219, 230, 332, 374","169-351, 170-351, 171-348, 172-345, 173-350, 204-349, 213-349, 219-347, 230-349, 332-351, 374-349",3839,-8.05241645,-34.91720721
7,1740,"FCAP - FACULDADE DE CIÊNCIAS DA ADMINISTRAÇÃO DE PERNAMBUCO",Recife,"AV. SPORT CLUBE DO RECIFE, N 252","MADALENA","148, 263, 279","148-321, 263-322, 279-321",964,-8.0611189,-34.9029219
7,1627,"INSTITUTO BLUE DE EDUCACAO E CULTURA - BLUE SCHOOL (CONECTA)",Recife,"RUA JOSÉ MÚCIO MONTEIRO, 157","MADALENA","430, 431, 432, 433, 434, 435, 436, 437, 438, 439, 440, 441, 442, 443, 444, 445, 446, 447, 448, 449, 450, 451, 452, 453, 454","430-225, 431-222, 432-221, 433-222, 434-222, 435-226, 436-225, 437-226, 438-222, 439-226, 440-225, 441-231, 442-223, 443-221, 444-224, 445-222, 446-220, 447-221, 448-223, 449-221, 450-224, 451-219, 452-223, 453-230, 454-272",5636,-8.06007609,-34.90191127
7,1333,"INSTITUTO HELENA LUBIENSKA",Recife,"RUA PARAGUASSU, S/N","ZUMBI","20, 21, 32, 33, 34, 46, 47, 196, 201, 208, 209, 214, 222, 265, 266, 272","20-369, 21-366, 32-367, 33-366, 34-364, 46-370, 47-370, 196-365, 201-366, 208-369, 209-365, 214-370, 222-369, 265-361, 266-375, 272-368",5880,-8.0495124,-34.91730727
7,1090,"PARQUE DE EXPOSIÇÃO DE ANIMAIS DO CORDEIRO",Recife,"RUA COSTA MAIA, 3","CORDEIRO","28, 50, 51, 55, 56, 259","28-391, 50-397, 51-394, 55-391, 56-394, 259-428",2395,-8.0472902,-34.9267399
7,1678,"PERPART",Recife,"RUA DR. JOÃO LACERDA, 395","CORDEIRO","57, 58, 59, 60, 86, 87, 283","57-379, 58-383, 59-380, 60-380, 86-376, 87-379, 283-382",2659,-8.0460748,-34.9223623
8,1767,"ANTIGA SEDE DO TRE/PE",Recife,"AV. RUI BARBOSA, 320","GRACAS","411, 412, 413, 414, 415","411-0, 412-0, 413-0, 414-0, 415-0",0,-8.0488639,-34.89876
8,1201,"CBV - JAQUEIRA",Recife,"RUA DR JOSE MARIA                     1106","ROSARINHO","128, 129, 130, 131, 132, 133, 404, 408, 416","128-389, 129-390, 130-383, 131-391, 132-399, 133-389, 404-375, 408-371, 416-304",3391,-8.03472566,-34.90176161
8,1619,"CENTRO SOCIAL DOM JOÃO COSTA",Recife,"RUA ACAIACA,70","ALTO JOSE DO PINHO","331, 332, 333, 334, 335","331-396, 332-394, 333-390, 334-396, 335-393",1969,-8.0218277,-34.90896335
8,1635,"CLUBE ESPORTIVO SOBRE RODAS",Recife,"RUA SALVADOR DE SA, 125","ARRUDA","342, 343, 344, 345, 346","342-210, 343-206, 344-212, 345-206, 346-209",1043,-8.03218316,-34.89313837
8,1643,"COLÉGIO ADVENTISTA DO ARRUDA",Recife,"RUA ZEFERINO AGRA, 268","ARRUDA","347, 348, 349, 350, 351, 352, 353, 354, 355, 356, 357, 358, 359, 360, 361, 362, 363, 364, 365, 366, 367","347-352, 348-345, 349-345, 350-350, 351-344, 352-340, 353-346, 354-347, 355-348, 356-347, 357-347, 358-345, 359-346, 360-348, 361-347, 362-347, 363-342, 364-350, 365-345, 366-344, 367-348",7273,-8.02164656,-34.89195485
8,1384,"COLEGIO ANGLO LÍDER",Recife,"RUA VISCONDE DE ABAETE, 200","TAMARINEIRA","124, 125, 126, 127, 174, 197, 221","124-395, 125-396, 126-392, 127-392, 174-392, 197-395, 221-394",2756,-8.02910054,-34.89783416
8,1236,"COLEGIO DA POLICIA MILITAR",Recife,"RUA HENRIQUE DIAS, S/N","DERBY","52, 53, 54, 55, 56, 154, 166","52-289, 53-291, 54-289, 55-289, 56-288, 154-287, 166-288",2021,-8.05915552,-34.8992939
8,1180,"COLEGIO DAS DAMAS DA INSTRUCAO CRISTA",Recife,"AV RUI BARBOSA                              1426","GRACAS","114, 115, 116, 117, 118, 119, 120, 121, 122, 123, 144, 152","114-397, 115-399, 116-397, 117-395, 118-397, 119-397, 120-398, 121-397, 122-399, 123-398, 144-397, 152-398",4769,-8.04212679,-34.90263745
8,1627,"COLÉGIO GGE - PARNAMIRIM",Recife,"RUA DESEMBARGADOR GÓIS CAVALCANTE, 460","PARNAMIRIM","336, 337, 338, 339, 340, 341","336-398, 337-394, 338-397, 339-396, 340-398, 341-397",2380,-8.03249667,-34.91178333
8,1279,"COLEGIO MARISTA SAO LUÍS",Recife,"AV. RUI BARBOSA, 1104","GRACAS","157, 158, 162, 163, 165, 168, 178, 189, 193, 198, 214, 217, 219, 220, 227, 229, 232, 234, 236, 237, 406","157-394, 158-395, 162-398, 163-396, 165-397, 168-396, 178-393, 189-393, 193-394, 198-396, 214-394, 217-394, 219-394, 220-397, 227-395, 229-396, 232-396, 234-396, 236-392, 237-392, 406-395",8293,-8.04303982,-34.90234879
8,1554,"COLÉGIO MODELO (ANTIGO QUADRA DO SANTA CRUZ FUTEBOL CLUBE)",Recife,"RUA RAMIZ GALVÃO, 83","ARRUDA","285, 286, 287, 288, 289, 290","285-318, 286-324, 287-318, 288-320, 289-321, 290-317",1918,-8.02761169,-34.89039858
8,1473,"COLÉGIO PRESBITERIANO MACKENZIE AGNES",Recife,"RUA AMÉLIA, 483","GRACAS","1, 2, 3, 4, 5, 6, 7, 8, 142, 151, 173, 192, 241, 244, 246","1-382, 2-380, 3-381, 4-380, 5-378, 6-381, 7-380, 8-380, 142-379, 151-380, 173-379, 192-380, 241-379, 244-381, 246-382",5702,-8.04708848,-34.90082632
8,1740,"COLÉGIO TERCEIRO MILÊNIO",Recife,"RUA DR. FERNANDO ALAIN, 136","ESPINHEIRO","156, 160, 164, 167, 171, 181, 183, 191, 207","156-351, 160-353, 164-354, 167-354, 171-352, 181-355, 183-354, 191-353, 207-353",3179,-8.0425521,-34.8884879
8,1759,"COLÉGIO TRIUNFO",Recife,"R. DO TRIUNFO, 647","ARRUDA","280, 281, 282, 283, 284, 407","280-304, 281-306, 282-293, 283-310, 284-317, 407-69",1599,-8.0252439,-34.8884964
8,1139,"COLEGIO VERA CRUZ",Recife,"AVENIDA RUI BARBOSA                   57","GRACAS","81, 82, 83, 84, 85, 86, 87, 88, 89, 90, 91, 92, 93, 143","81-332, 82-332, 83-336, 84-333, 85-333, 86-332, 87-331, 88-335, 89-336, 90-333, 91-333, 92-334, 93-332, 143-333",4665,-8.05098616,-34.89717231
8,1651,"DNOCS",Recife,"RUA CONEGO BARATA                     999","TAMARINEIRA","368, 369, 370, 371, 372, 373, 374, 375, 376, 377, 378, 379, 380, 381, 382","368-282, 369-277, 370-280, 371-282, 372-282, 373-283, 374-283, 375-283, 376-284, 377-283, 378-284, 379-278, 380-285, 381-282, 382-282",4230,-8.02733833,-34.89758833
8,1376,"EDUCANDARIO NOSSA SENHORA DE LOURDES",Recife,"AVENIDA ROSA E SILVA, 1767","AFLITOS","175, 185, 194, 200, 202, 208, 218, 222","175-390, 185-392, 194-391, 200-390, 202-390, 208-390, 218-392, 222-389",3124,-8.03668765,-34.90157651
8,1350,"ESCOLA DOM HELDER CAMARA",Recife,"RUA MARQUES DO PARANA, 320","ESPINHEIRO","172, 201, 211, 230","172-353, 201-285, 211-343, 230-344",1325,-8.04091879,-34.88839903
8,1678,"ESCOLA DONA MARIA TERESA CORREIA",Recife,"RUA SEIS S/N","ALTO JOSE DO PINHO","394, 395, 396, 397, 398, 399, 400, 401, 402, 403","394-397, 395-392, 396-394, 397-396, 398-397, 399-396, 400-393, 401-396, 402-394, 403-396",3951,-8.02192891,-34.90738392
8,1570,"ESCOLA ESTADUAL JOSÉ VILELA",Recife,"ESTRADA DO ENCANAMENTO, 277","PARNAMIRIM","299, 300, 301, 302, 303, 304, 305, 306, 307, 308, 309, 310","299-289, 300-287, 301-287, 302-283, 303-285, 304-288, 305-286, 306-284, 307-284, 308-287, 309-284, 310-288",3432,-8.032245,-34.91287333
8,1392,"ESCOLA ESTADUAL REGUEIRA COSTA",Recife,"RUA REGUEIRA COSTA, S/N","ROSARINHO","134, 135, 136, 137, 145, 212, 226, 235, 410","134-384, 135-386, 136-383, 137-384, 145-381, 212-385, 226-383, 235-383, 410-385",3454,-8.03407026,-34.89840223
8,1368,"ESCOLA GOVERNADOR BARBOSA LIMA",Recife,"RUA JOAQUIM NABUCO, S/N","GRACAS","170, 196, 238","170-257, 196-252, 238-206",715,-8.05277742,-34.89642382
8,1600,"ESCOLA MOTA E ALBUQUERQUE",Recife,"RUA SOARES MORENO , 117","TAMARINEIRA","325, 326, 327, 328, 329, 330","325-344, 326-342, 327-341, 328-340, 329-338, 330-344",2049,-8.02957,-34.906035
8,1520,"ESCOLA MUNICIPAL DA MANGABEIRA",Recife,"RUA NICEAS ARCOVERDE GUSMÃO, S/N","MANGABEIRA","248, 249, 250, 251, 252","248-250, 249-243, 250-246, 251-245, 252-248",1232,-8.02361514,-34.90043103
8,1562,"ESCOLA MUNICIPAL SANTA MARIA",Recife,"RUA ACAIACA  ,  70","ALTO JOSE DO PINHO","291, 292, 293, 294, 295, 296, 297, 298, 409","291-394, 292-391, 293-388, 294-390, 295-393, 296-391, 297-390, 298-394, 409-390",3521,-8.02201452,-34.90886759
8,1589,"ESCOLA MUNICIPAL SEVERINA LIRA",Recife,"RUA DA BOA VONTADE, 110","TAMARINEIRA","312, 314","312-269, 314-219",488,-8.0287,-34.90061167
8,1120,"ESCOLA PAULA FRASSINETTI",Recife,"RUA GOMES PACHECO                     SN","ESPINHEIRO","71, 72, 73, 74, 75, 76, 77, 78, 79, 80, 150","71-246, 72-244, 73-247, 74-246, 75-246, 76-246, 77-247, 78-246, 79-249, 80-247, 150-244",2708,-8.04082688,-34.88832571
8,1538,"ESCOLA PROFESSOR ALFREDO FREYRE",Recife,"RUA ZEFERINO AGRA, 193","ARRUDA","253, 254, 255, 256, 257, 258, 259, 260, 261, 262, 263, 264, 265, 266, 267, 268, 269, 270, 271, 272, 273, 274, 275","253-325, 254-330, 255-330, 256-325, 257-328, 258-325, 259-328, 260-331, 261-326, 262-328, 263-327, 264-328, 265-331, 266-331, 267-326, 268-323, 269-331, 270-330, 271-327, 272-325, 273-324, 274-329, 275-327",7535,-8.02132816,-34.89265085
8,1104,"ETEPAM - ESCOLA TECNICA ESTADUAL PROF. AGAMENON MAGALHAES",Recife,"AVENIDA JOAO DE BARROS                1769","ENCRUZILHADA","57, 58, 59, 60, 61, 62, 63, 64, 65, 66, 67, 68, 69, 70, 147","57-325, 58-326, 59-326, 60-331, 61-328, 62-327, 63-328, 64-325, 65-329, 66-328, 67-329, 68-329, 69-328, 70-328, 147-328",4915,-8.03916707,-34.8922357
8,1686,"FACULDADE DAMAS",Recife,"AV. DOUTOR MALAQUIAS, 1426-B","GRACAS","239, 243, 245, 405","239-375, 243-374, 245-376, 405-375",1500,-8.03938894,-34.90245276
8,1023,"INSTITUTO DOS CEGOS",Recife,"RUA GUILHERME PINTO, 146","CAPUNGA","9, 179","9-172, 179-175",347,-8.05206647,-34.90222191
8,1031,"INSTITUTO PROFISSIONAL MARIA AUXILIADORA",Recife,"RUA JOAQUIM NABUCO, 237","GRACAS","10, 11, 12, 13, 14, 15, 177, 215","10-290, 11-302, 12-289, 13-296, 14-288, 15-297, 177-290, 215-289",2341,-8.05263676,-34.89841034
8,1732,"PARÓQUIA DE SANTO ANTONIO ÁGUA FRIA/ARRUDA",Recife,"RUA ZEFERINO AGRA, 580","ARRUDA","276, 277, 278, 279","276-333, 277-336, 278-330, 279-332",1331,-8.0225158,-34.8891801
8,1660,"SANTA CRUZ FUTEBOL CLUBE",Recife,"AVENIDA BEBERIBE,1285","ARRUDA","383, 384, 385, 386, 387, 388, 389, 390, 391, 392, 393","383-339, 384-340, 385-339, 386-342, 387-340, 388-341, 389-339, 390-339, 391-342, 392-338, 393-340",3739,-8.02648904,-34.8930908
8,1597,"SESC",Recife,"AV. PROF. JOSE DOS ANJOS, 09","MANGABEIRA","315, 316, 317, 318, 319, 320, 321, 322, 323, 324","315-344, 316-333, 317-335, 318-328, 319-332, 320-334, 321-335, 322-326, 323-331, 324-331",3329,-8.02592,-34.90526667
9,1767,"ASSOCIAÇÃO CENTRO EDUCACIONAL MAGNO DELAMADRI - ANTIGO CEMA",Recife,"RUA ESPINOSA, 361","ALTO JOSE BONIFACIO","519, 520","519-387, 520-383",770,-8.01222854,-34.90917639
9,1520,"CLUBE ASSISTENCIAL ESPORTIVO BELA VISTA",Recife,"RUA ANÍBAL BENÉVOLO, 636","AGUA FRIA","321, 327, 331, 333, 336, 339, 340, 341, 536","321-368, 327-372, 331-374, 333-368, 336-376, 339-374, 340-369, 341-369, 536-301",3271,-8.0076938,-34.8958993
9,1511,"COLEGIO MOVIMENTO- ANTIGO HORIZONTE",Recife,"RUA MOEMA, 157","AGUA FRIA","83, 84, 85, 200, 317, 319","83-393, 84-394, 85-393, 200-395, 317-394, 319-396",2365,-8.0183649,-34.8915892
9,1775,"COMPAZ - GOVERNADOR EDUARDO CAMPOS",Recife,"AV. ANÍBAL BENÉVOLO, S/N","LINHA DO TIRO","528, 542","528-369, 542-68",437,-8.0106084,-34.9029196
9,1724,"EREM DE BEBERIBE",Recife,"RUA URIEL DE HOLANDA                         219","BEBERIBE","485, 486, 487, 488, 489, 490, 491, 492, 493, 494, 495, 496, 497, 498, 499","485-387, 486-391, 487-390, 488-387, 489-395, 490-390, 491-393, 492-388, 493-386, 494-385, 495-390, 496-389, 497-387, 498-388, 499-391",5837,-8.0043784,-34.8994462
9,1759,"EREM PADRE NERCIO RODRIGUES",Recife,"RUA URIEL DE HOLANDA, SN","LINHA DO TIRO","513, 514, 515, 516, 517, 518, 533, 544","513-391, 514-396, 515-397, 516-388, 517-388, 518-393, 533-385, 544-68",2806,-8.0079007,-34.9076702
9,1023,"EREM PROF. MARDÔNIO DE ANDRADE DE LIMA COELHO",Recife,"RUA CHA DE ALEGRIA, 117","BOMBA DO HEMETERIO","12, 13, 14, 15, 16, 17, 18, 77, 78, 79, 232, 236, 239, 251, 530, 541","12-385, 13-386, 14-385, 15-385, 16-385, 17-382, 18-385, 77-388, 78-386, 79-386, 232-388, 236-387, 239-384, 251-387, 530-386, 541-381",6166,-8.0207659,-34.9038273
9,1783,"ESCOLA COMANDANTE LUIZ GOMES - ANTIGA ESCOLA IRMÃ MAGNA",Recife,"AV. VEREADOR OTACÍLIO DE AZEVEDO N. 2567","BREJO DE BEBERIBE","478, 479, 480, 481, 482, 483, 484, 539, 545","478-391, 479-393, 480-393, 481-394, 482-391, 483-391, 484-391, 539-386, 545-40",3170,-7.998911,-34.9241446
9,1120,"ESCOLA ESTADUAL ANA MALTA DA COSTA AZEVEDO",Recife,"RUA PADRE OLIVEIRA, 684","BOMBA DO HEMETERIO","80, 81, 82, 311, 525","80-377, 81-373, 82-377, 311-376, 525-376",1879,-8.0190826,-34.9098386
9,1597,"ESCOLA ESTADUAL CAIO PEREIRA",Recife,"RUA ALTO JOSE BONIFACIO, S/N","ALTO JOSE BONIFACIO","351, 352, 353, 354, 355, 356, 357, 358, 523, 532, 543","351-392, 352-388, 353-386, 354-386, 355-382, 356-387, 357-387, 358-392, 523-383, 532-379, 543-232",4094,-8.0123394,-34.913311
9,1600,"ESCOLA ESTADUAL DOUTOR FABIO CORREIA",Recife,"RUA ADALBERTO ELIAS DA COSTA  SN","BEBERIBE","359, 360, 361, 362, 363, 364, 365, 366, 367, 368, 369, 370, 371","359-347, 360-339, 361-339, 362-349, 363-351, 364-349, 365-347, 366-346, 367-345, 368-351, 369-342, 370-344, 371-341",4490,-8.0051866,-34.8982255
9,1660,"ESCOLA ESTADUAL DR. FRANCISCO PESSOA DE QUEIROZ",Recife,"AV. HIDELBRANDO DE VASCONCELOS, SN","DOIS UNIDOS","431, 432, 433, 434, 435, 436, 437, 438, 439, 440, 441","431-397, 432-395, 433-394, 434-392, 435-399, 436-394, 437-394, 438-396, 439-399, 440-395, 441-396",4351,-7.9944694,-34.9113297
9,1465,"ESCOLA ESTADUAL GABRIELA MISTRAL",Recife,"RUA LADEIRA DE PEDRA, SN","AGUA FRIA","277, 287, 291, 301, 313, 316, 527","277-395, 287-396, 291-396, 301-393, 313-389, 316-394, 527-394",2757,-8.0139627,-34.9036098
9,1627,"ESCOLA ESTADUAL PEDRO CELSO",Recife,"RUA URIEL DE HOLANDA SN","BEBERIBE","386, 387, 388, 389, 390, 391, 392, 393, 394, 395, 396, 397, 398, 399, 400, 401, 402, 403, 404, 405, 406, 408","386-388, 387-390, 388-383, 389-391, 390-390, 391-392, 392-387, 393-391, 394-391, 395-390, 396-389, 397-389, 398-388, 399-386, 400-388, 401-390, 402-389, 403-390, 404-391, 405-389, 406-390, 408-392",8564,-8.0035202,-34.8984027
9,1236,"ESCOLA ESTADUAL PROF. PEDRO AUGUSTO CARNEIRO LEAO",Recife,"AVENIDA BEBERIBE, 2595","FUNDAO","167, 168, 169, 170, 171, 172, 173, 174, 175, 176, 215, 535","167-380, 168-369, 169-367, 170-370, 171-372, 172-373, 173-374, 174-374, 175-371, 176-375, 215-371, 535-367",4463,-8.0157297,-34.890929
9,1643,"ESCOLA ESTADUAL PROFESSOR JOSE DOS ANJOS",Recife,"AV HIDELBRANDO DE VASCONCELOS       SN","DOIS UNIDOS","415, 416, 417, 418, 419, 420, 421, 422, 423, 424, 537","415-395, 416-396, 417-398, 418-398, 419-397, 420-397, 421-392, 422-394, 423-395, 424-398, 537-393",4353,-7.9893062,-34.9168646
9,1066,"ESCOLA ESTADUAL ROSA MAGALHAES MELO",Recife,"AV ANIBAL BENEVOLO, 1378","AGUA FRIA","188, 195, 210, 216, 219, 221, 224, 227, 256, 529","188-387, 195-382, 210-386, 216-384, 219-385, 221-383, 224-383, 227-385, 256-376, 529-378",3829,-8.0106041,-34.9015524
9,1414,"ESCOLA ESTADUAL SAO FRANCISCO DE ASSIS",Recife,"RUA SAO BENTO, 157","AGUA FRIA","234, 238, 240, 250, 342, 524","234-380, 238-384, 240-384, 250-386, 342-383, 524-384",2301,-8.0236027,-34.895349
9,1546,"ESCOLA MUNICIPAL ANA MAURÍCIA WANDERLEY",Recife,"RUA JOÃO UZEDA LUNA, 813 - CORREGO SÃO SEBASTIÃO","AGUA FRIA","326, 328, 329, 330, 538","326-376, 328-374, 329-367, 330-368, 538-148",1633,-8.0179648,-34.8960306
9,1325,"ESCOLA MUNICIPAL ANTONIO HERACLIO DO REGO",Recife,"RUA MANOEL SILVA, 134","FUNDAO","8, 9, 10, 11, 54, 55, 56, 57, 58, 59, 60","8-309, 9-310, 10-311, 11-309, 54-310, 55-313, 56-308, 57-312, 58-308, 59-311, 60-307",3408,-8.0185508,-34.8889563
9,1791,"ESCOLA MUNICIPAL DE BEBERIBE - ANTIGA ZULEIDE GOMES",Recife,"RUA MELANIO DE BARROS CORREIA SN","BEBERIBE","409, 410, 411, 412, 413, 414, 540","409-289, 410-286, 411-296, 412-292, 413-301, 414-262, 540-21",1747,-8.0033253,-34.898994
9,1694,"ESCOLA MUNICIPAL DOM JOSÉ LAMARTINE SOARES",Recife,"RUA ALTO DO EUCALIPTO, S/N","VASCO DA GAMA","466, 467, 468, 469, 470, 471","466-398, 467-395, 468-396, 469-397, 470-396, 471-397",2379,-8.0083365,-34.9194974
9,1490,"ESCOLA MUNICIPAL MANOEL ANTONIO DE FREITAS",Recife,"RUA SAO JERONIMO, 147","ALTO SANTA TEREZINHA","310, 324, 526","310-365, 324-359, 526-98",822,-8.0176833,-34.909161
9,1686,"ESCOLA MUNICIPAL MARLUCE SANTIAGO DA SILVA",Recife,"ESTRADA DE PASSARINHO","PASSARINHO","460, 461, 462, 463, 464, 465, 534","460-393, 461-392, 462-395, 463-394, 464-391, 465-394, 534-392",2751,-7.980366,-34.9177142
9,1732,"ESCOLA MUNICIPAL MONSENHOR VIANA",Recife,"RUA TAGUATINGA, S/N","BEBERIBE","500, 501, 502, 503, 504, 505, 506","500-315, 501-320, 502-317, 503-315, 504-315, 505-314, 506-313",2209,-8.0046059,-34.8982269
9,1740,"ESCOLA MUNICIPAL OLINDINA MONTEIRO DE OLIVEIRA FRANCA",Recife,"RUA DA BELA VISTA, S/N","DOIS UNIDOS","507, 508, 509, 510, 511, 512","507-395, 508-395, 509-393, 510-396, 511-394, 512-395",2368,-8.002735,-34.9061975
9,1708,"ESCOLA MUNICIPAL OTÁVIO DE MEIRA LINS",Recife,"RUA JOSÉ REBOUÇAS, 141","VASCO DA GAMA","472, 473, 474, 475, 476, 477, 531","472-386, 473-383, 474-386, 475-382, 476-384, 477-382, 531-385",2688,-8.0102267,-34.9163278
9,1651,"ESCOLA MUNICIPAL PASTOR PAULO LEIVAS MACALAO",Recife,"RUA ALTEROSA, S/N","ALTO JOSE BONIFACIO","425, 426, 427, 428, 429, 430","425-392, 426-396, 427-394, 428-390, 429-396, 430-394",2362,-8.0121405,-34.9088785
9,1678,"ESCOLA MUNICIPAL PAULO VI",Recife,"RUA GUAIRA , SN","LINHA DO TIRO","442, 443, 444, 445, 446, 447, 448, 449, 450, 451, 452, 453, 454, 455","442-385, 443-391, 444-394, 445-394, 446-387, 447-388, 448-394, 449-391, 450-395, 451-391, 452-394, 453-390, 454-392, 455-389",5475,-8.0076779,-34.9046548
9,1015,"ESCOLA MUNICIPAL POETA SOLANO TRINDADE",Recife,"RUA MANOEL SILVA, 134","FUNDAO","61, 62, 63, 64, 65, 209, 323, 325","61-278, 62-273, 63-273, 64-279, 65-276, 209-286, 323-271, 325-276",2212,-8.0183707,-34.8891694
9,1589,"ESCOLA MUNICIPAL PROFESSOR RICARDO GAMA",Recife,"RUA GUAIRA 160","LINHA DO TIRO","344, 345, 346, 347, 348, 349, 350, 456, 457, 458, 459","344-386, 345-383, 346-385, 347-384, 348-382, 349-386, 350-381, 456-379, 457-381, 458-385, 459-389",4221,-8.0074503,-34.9043785
9,1392,"ESCOLA MUNICIPAL SAO JOAO BATISTA",Recife,"AVENIDA ANIBAL BENEVOLO, 1800","AGUA FRIA","260, 273, 285, 299, 308","260-390, 273-389, 285-389, 299-384, 308-395",1947,-8.0120094,-34.9045723
9,1058,"ESCOLA ROTARY DO ALTO DO PASCOAL",Recife,"RUA LADEIRA DE PEDRA, 958","AGUA FRIA","19, 20, 21, 22, 23, 24, 25, 42, 43, 44, 45, 46, 47, 246","19-392, 20-389, 21-389, 22-391, 23-394, 24-399, 25-393, 42-389, 43-394, 44-390, 45-391, 46-396, 47-395, 246-401",5503,-8.0153764,-34.9020735
9,1619,"INVEST CENTRO EDUCACIONAL",Recife,"AVENIDA BEBERIBE                      3607","PORTO DA MADEIRA","372, 373, 374, 375, 376, 377, 378, 379, 380, 381, 382, 383, 384, 385","372-390, 373-393, 374-395, 375-392, 376-395, 377-395, 378-394, 379-391, 380-393, 381-391, 382-396, 383-394, 384-393, 385-394",5506,-8.0073711,-34.8904874
10,1350,"COLÉGIO DE SÃO BENTO",Olinda,"AVENIDA SIGISMUNDO GONÇALVES, 375","CARMO","285, 286, 287, 288, 289, 290, 291, 292, 293, 294","285-291, 286-350, 287-321, 288-322, 289-337, 290-293, 291-292, 292-292, 293-295, 294-291",3084,-8.0200683,-34.8505683
10,1155,"COLÉGIO DOM",Olinda,"AV. DR. JOSÉ AUGUSTO MOREIRA N-990","CASA CAIADA","52, 53, 54, 55, 56, 57, 58, 71, 72, 73, 74, 75, 76, 77, 78, 79, 80, 81, 170, 172, 212, 226, 233, 237, 238, 243, 248, 251, 254","52-359, 53-357, 54-352, 55-355, 56-358, 57-354, 58-349, 71-357, 72-356, 73-356, 74-354, 75-357, 76-351, 77-358, 78-351, 79-349, 80-347, 81-358, 170-352, 172-355, 212-354, 226-353, 233-352, 237-352, 238-350, 243-358, 248-348, 251-349, 254-352",10253,-7.986395,-34.8383617
10,1368,"COLEGIO ESTADUAL DE OLINDA",Olinda,"RUA DO BONFIM,   S/N","CARMO","304, 305, 306, 307, 308, 309, 310","304-226, 305-229, 306-229, 307-227, 308-227, 309-229, 310-233",1600,-8.0146883,-34.8513167
10,1082,"COLÉGIO IMACULADO CORAÇÃO DE MARIA",Olinda,"RUA MONSENHOR FRANCISCO AMBRÓSIO DE BARROS LEITE, 501","BAIRRO NOVO","13, 22, 23, 24, 25, 26, 27, 28, 29, 30, 31, 32, 33, 34, 35, 42, 45, 46, 47, 175, 199, 200, 205, 218, 219, 231, 239, 244, 255, 260","13-300, 22-300, 23-301, 24-297, 25-295, 26-294, 27-301, 28-298, 29-298, 30-299, 31-295, 32-298, 33-299, 34-294, 35-296, 42-298, 45-300, 46-298, 47-294, 175-298, 199-294, 200-293, 205-294, 218-302, 219-300, 231-298, 239-297, 244-289, 255-292, 260-291",8903,-7.9973767,-34.8434217
10,1333,"COLÉGIO PATRICIA COSTA",Olinda,"RUA CLÍDIO DE LIMA NIGRO, 90","RIO DOCE","258, 262, 266, 268, 273, 274, 276, 277","258-379, 262-379, 266-382, 268-375, 273-376, 274-383, 276-384, 277-379",3037,-7.96773,-34.83535
10,1090,"COLÉGIO PINTOR MANOEL BANDEIRA",Olinda,"RUA MONS. FRANCISCO AMBRÓSIO DE BARROS LEITE S/N","BAIRRO NOVO","36, 37, 38, 39, 40, 41, 261, 265, 272, 283","36-304, 37-306, 38-295, 39-302, 40-301, 41-306, 261-300, 265-301, 272-323, 283-301",3039,-7.9975827,-34.8419242
10,1163,"COLÉGIO PLENO",Olinda,"AVENIDA DR. JOSÉ AUGUSTO MOREIRA, 1704","CASA CAIADA","82, 83, 84, 85, 86, 180, 269","82-327, 83-326, 84-324, 85-325, 86-321, 180-326, 269-326",2275,-7.9873583,-34.837905
10,1279,"COLÉGIO SANTA EMÍLIA",Olinda,"RUA MARFIM, 375","JARDIM ATLÂNTICO","132, 133, 134, 135, 178, 188, 192, 194, 198, 217, 232, 236, 240, 246, 249, 264","132-384, 133-380, 134-384, 135-386, 178-379, 188-379, 192-384, 194-379, 198-388, 217-383, 232-390, 236-385, 240-377, 246-380, 249-386, 264-386",6130,-7.97511,-34.8470883
10,1147,"COLÉGIO SOUZA LEÃO",Olinda,"RUA MARIA DA CONCEIÇÃO VIANA, 390","JARDIM ATLÂNTICO","59, 60, 61, 62, 63, 64, 65, 66, 67, 68, 69, 70, 171, 193, 197, 203, 207, 215, 222","59-360, 60-359, 61-349, 62-362, 63-361, 64-357, 65-360, 66-353, 67-364, 68-354, 69-364, 70-352, 171-357, 193-363, 197-359, 203-368, 207-357, 215-361, 222-357",6817,-7.9728583,-34.83719
10,1180,"ESCOLA COMPOSITOR ANTÔNIO MARIA",Olinda,"AV. DAS ACÁCIAS, SN","RIO DOCE","94, 95, 96, 97, 98, 99, 100, 174, 176, 190, 191, 195, 196, 201, 206, 210, 214, 220","94-293, 95-294, 96-289, 97-293, 98-294, 99-293, 100-292, 174-294, 176-286, 190-293, 191-294, 195-294, 196-293, 201-296, 206-295, 210-291, 214-292, 220-294",5270,-7.959615,-34.8447533
10,1244,"ESCOLA DE REFERÊNCIA EM ENSINO MÉDIO SANTA ANA",Olinda,"RUA SANTANA , S/N","RIO DOCE","140, 141, 142, 143, 144, 145, 146, 181, 209, 223, 263, 275, 280","140-375, 141-372, 142-373, 143-377, 144-376, 145-375, 146-373, 181-373, 209-378, 223-372, 263-370, 275-372, 280-370",4856,-7.9707217,-34.84057
10,1198,"ESCOLA DOM PEDRO BANDEIRA DE MELO",Olinda,"RUA DO PESSEGO, SN","RIO DOCE","101, 102, 103, 104, 105, 106, 107, 183, 202, 208","101-387, 102-386, 103-386, 104-383, 105-390, 106-386, 107-392, 183-386, 202-383, 208-381",3860,-7.961505,-34.8508883
10,1384,"ESCOLA DUARTE COELHO",Olinda,"RUA DO BONFIM,  315","CARMO","313, 314, 315, 316","313-160, 314-315, 315-308, 316-309",1092,-8.0146967,-34.851185
10,1317,"ESCOLA ESCRITOR PAULO CAVALCANTI",Olinda,"RUA 16  N. 140","RIO DOCE","225, 242, 284","225-333, 242-326, 284-328",987,-7.9560992,-34.8531859
10,1392,"ESCOLA ESTADUAL PROFESSOR PAULO FREIRE",Olinda,"AV. CORONEL JOAO DE MELO MORAIS, S/N","FRAGOSO","320, 321, 322, 323, 324, 325","320-380, 321-383, 322-377, 323-388, 324-386, 325-383",2297,-7.986985,-34.8517167
10,1210,"ESCOLA JERÔNIMO DE ALBUQUERQUE",Olinda,"AV. NÁPOLES, S/N","RIO DOCE","123, 124, 125, 126, 127, 128, 129, 130, 131, 211, 271, 281","123-388, 124-383, 125-381, 126-387, 127-388, 128-386, 129-388, 130-385, 131-387, 211-378, 271-384, 281-385",4620,-7.9675933,-34.849305
10,1171,"ESCOLA JOÃO MATOS GUIMARÃES",Olinda,"RUA DAS GARÇAS, S/N","RIO DOCE","87, 88, 89, 90, 91, 92, 93, 177, 182, 204, 216, 227, 235, 250, 253","87-378, 88-374, 89-377, 90-376, 91-378, 92-377, 93-381, 177-378, 182-377, 204-376, 216-377, 227-376, 235-378, 250-374, 253-374",5651,-7.9654,-34.856395
10,1287,"ESCOLA MUNICIPAL DONA BRITES DE ALBUQUERQUE",Olinda,"RUA CLETO CAMPELO S/N","BAIRRO NOVO","50, 51, 184","50-347, 51-345, 184-347",1039,-8.008085,-34.8429933
10,1422,"ESCOLA MUNICIPAL EBENEZER GUEIROS",Olinda,"RUA SÃO JOÃO BATISTA 491, RIO DOCE","RIO DOCE","279, 282, 332","279-373, 282-383, 332-70",826,0,0
10,1309,"ESCOLA MUNICIPAL GREGÓRIO BEZERRA",Olinda,"RUA MARTA FRANÇA DE LIMA, 115","JARDIM ATLÂNTICO","224, 247","224-177, 247-178",355,0,0
10,1228,"ESCOLA MUNICIPAL MONTE CASTELO",Olinda,"AVENIDA JULES RIMET, S/N","RIO DOCE","165, 166, 167, 168, 179","165-358, 166-359, 167-358, 168-361, 179-353",1789,-7.963265,-34.8399067
10,1449,"ESCOLA MUNICIPAL PROFESSOR JOÃO FRANCISCO DE SOUZA",Olinda,"RUA HUMBERTO DE LIMA MENDES 405","FRAGOSO","326, 327, 331","326-381, 327-376, 331-123",880,0,0
10,1376,"ESCOLA OÁSIS",Olinda,"RUA BELA VISTA, 59","FRAGOSO","311, 312","311-394, 312-390",784,-7.98006,-34.8541167
10,1201,"ESCOLA PROFESSOR ERNESTO SILVA",Olinda,"RUA PROF. ÊNNIO CARLOS DE ALBUQUERQUE,  133","RIO DOCE","108, 109, 110, 111, 112, 113, 114, 115, 116, 117, 118, 119, 120, 121, 122, 169","108-266, 109-262, 110-265, 111-265, 112-269, 113-263, 114-262, 115-267, 116-266, 117-266, 118-266, 119-263, 120-267, 121-265, 122-267, 169-267",4246,-7.963425,-34.84536
10,1252,"ESCOLA PROFESSORA INÊS BORBA",Olinda,"RUA SANTANA, S/N","JARDIM ATLÂNTICO","147, 148, 149, 150, 151, 152, 153, 154, 155, 156, 173, 329","147-202, 148-204, 149-204, 150-201, 151-199, 152-205, 153-202, 154-203, 155-201, 156-200, 173-201, 329-371",2593,-7.9710383,-34.8398867
10,1236,"ESCOLA PROFESSORA IZABEL BURITY",Olinda,"AV BRASIL, S/N","RIO DOCE","136, 137, 138, 139, 185, 213, 229","136-275, 137-273, 138-276, 139-274, 185-273, 213-270, 229-275",1916,-7.961115,-34.8442783
10,1430,"ESCOLA SÃO LUCAS",Olinda,"RUA PROF. FRANCISCO XAVIER PAES BARRETO S/N","CASA CAIADA","330","330-105",105,0,0
10,1414,"ESCOLA TÉCNICA ESTADUAL CHICO SCIENCE",Olinda,"AV. DAS ACÁCIAS, 3 ETAPA","RIO DOCE","221, 228, 230, 234, 241, 245, 256","221-304, 228-300, 230-305, 234-304, 241-300, 245-303, 256-303",2119,-7.9599153,-34.8458883
10,1074,"FACOTTUR",Olinda,"AV.  GETÚLIO VARGAS, 1360","BAIRRO NOVO","14, 15, 16, 17, 18, 19, 20","14-327, 15-326, 16-324, 17-326, 18-323, 19-326, 20-323",2275,-7.999495,-34.8397533
10,1260,"GRUPO ESCOLAR ANTÔNIO SOUTO FILHO",Olinda,"PRAÇA DO MERCADO, 1 ETAPA, S/N","RIO DOCE","157, 158, 159, 160, 161, 162, 163, 164","157-392, 158-389, 159-388, 160-393, 161-392, 162-386, 163-390, 164-386",3116,-7.9634767,-34.8366433
10,1325,"INSTITUTO FEDERAL DE PERNAMBUCO - IFPE",Olinda,"AVENIDA FAGUNDES VARELA N-375","JARDIM ATLÂNTICO","252, 257, 259, 267, 278, 328","252-308, 257-309, 259-308, 267-307, 278-307, 328-310",1849,-7.9778133,-34.8409767
11,1341,"CASA DA CULTURA DE JABOATÃO DOS GUARARAPES",Jaboatão Dos Guararapes,"PRAÇA NOSSA SRA. DO ROSÁRIO, 670","CENTRO","98, 99, 100, 101, 102","98-385, 99-380, 100-380, 101-384, 102-383",1912,-8.11263299,-35.01970692
11,1198,"CENTRO SOCIAL DOS FERROVIARIOS DE JABOATAO",Jaboatão Dos Guararapes,"PRACA DANTAS BARRETO                   SN","CENTRO","158, 160, 161, 162, 164, 178","158-370, 160-374, 161-371, 162-373, 164-371, 178-370",2229,-8.11149374,-35.01377705
11,1082,"CESFA - CENTRO EDUCACIONAL SÃO FRANCISCO DE ASSIS",Jaboatão Dos Guararapes,"RUA FLORIANO PEIXOTO, 235","PADRE ROMA","71, 72, 73, 74, 75, 76, 77, 78, 79, 149","71-310, 72-315, 73-312, 74-308, 75-309, 76-313, 77-310, 78-312, 79-311, 149-311",3111,-8.11535586,-35.01648333
11,1384,"COLEGIO ALBERTO LUIZ RUSSO",Jaboatão Dos Guararapes,"AVENIDA SANTA HELENA, 325","JARDIM MURIBECA","274, 275, 276, 277, 339, 344, 350","274-361, 275-360, 276-364, 277-363, 339-378, 344-377, 350-348",2551,-8.16076883,-34.97133072
11,1040,"COLEGIO E CURSO MAGMA LTDA",Jaboatão Dos Guararapes,"RUA DUQUE DE CAXIAS, 136, CENTRO","CENTRO","190, 194, 195, 197","190-398, 194-396, 195-397, 197-393",1584,-8.11098242,-35.01806416
11,1120,"COLEGIO MUNICIPAL HUMBERTO BARRADAS",Jaboatão Dos Guararapes,"PRACA DO PROFESSOR                       SN","ENGENHO VELHO","103, 104, 108, 109, 110, 111, 112, 113, 114, 115, 116, 117, 152, 213","103-393, 104-396, 108-393, 109-398, 110-397, 111-395, 112-394, 113-394, 114-392, 115-395, 116-395, 117-389, 152-396, 213-393",5520,-8.10948996,-35.00716652
11,1465,"COLEGIO SANTA JOANA D'ARC",Jaboatão Dos Guararapes,"RUA ARMANDO TAVARES, 525, CONJUNTO MURIBECA","MURIBECA","330, 331, 332, 333, 334, 340","330-325, 331-320, 332-323, 333-325, 334-323, 340-326",1942,-8.15424759,-34.9552128
11,1350,"EDUCANDÁRIO JOSE FERNANDES",Jaboatão Dos Guararapes,"AV MINISTRO MARCOS FREIRE, 307","SANTO ALEIXO","247, 250, 252, 255, 342, 347","247-349, 250-342, 252-343, 255-345, 342-344, 347-345",2068,-8.10149499,-35.01514882
11,1376,"ESCOLA ADELAIDE PESSOA CAMARA",Jaboatão Dos Guararapes,"CONJUNTO RESIDENCIAL MARCOS FREIRE, S/N","MARCOS FREIRE","261, 262, 263, 264, 265, 266, 267, 268, 269, 270, 271, 272, 273","261-389, 262-392, 263-396, 264-392, 265-395, 266-394, 267-388, 268-389, 269-393, 270-393, 271-391, 272-390, 273-394",5096,-8.13929763,-34.97192969
11,1139,"ESCOLA DR LUIZ GONZAGA MARANHAO",Jaboatão Dos Guararapes,"RUA FREI CANECA                           73","PADRE ROMA","118, 119, 120, 121, 122, 146","118-396, 119-398, 120-396, 121-395, 122-396, 146-397",2378,-8.11814603,-35.01588719
11,1422,"ESCOLA EDSON MOURY FERNANDES",Jaboatão Dos Guararapes,"RUA DOIS, S/N CONJUNTO MURIBECA","MURIBECA DOS GUARARAPES","307, 308, 309, 310, 311, 312, 313, 314, 315, 316, 317, 318, 319, 320, 321","307-379, 308-376, 309-378, 310-374, 311-376, 312-374, 313-371, 314-374, 315-375, 316-375, 317-376, 318-375, 319-373, 320-372, 321-371",5619,-8.15813355,-34.957175
11,1414,"ESCOLA HUMBERTO LINS BARRADAS",Jaboatão Dos Guararapes,"RUA RIACHO DA PRATA, S/N","MURIBECA DOS GUARARAPES","294, 295, 296, 297, 298, 299, 300, 301, 302, 303, 304, 305, 306","294-398, 295-392, 296-392, 297-391, 298-392, 299-391, 300-389, 301-392, 302-391, 303-390, 304-390, 305-387, 306-391",5086,-8.17686738,-34.99746913
11,1023,"ESCOLA JOÃO BOSCO DE SENA",Jaboatão Dos Guararapes,"RUA ANTONIO MATOSO S/N","SANTO ALEIXO","189, 193, 199, 203, 204, 208, 211, 216, 229","189-379, 193-380, 199-377, 203-384, 204-379, 208-379, 211-382, 216-382, 229-381",3423,-8.10469548,-35.01433982
11,1163,"ESCOLA JOSE CARNEIRO DE BARROS CAMPELO",Jaboatão Dos Guararapes,"RUA CHILE                                  SN","SANTO ALEIXO","155, 157, 159, 166, 172, 176, 185, 235, 335, 341","155-397, 157-385, 159-387, 166-395, 172-396, 176-392, 185-391, 235-392, 335-387, 341-395",3917,-8.1011542,-35.01607194
11,1392,"ESCOLA LUIZ GONZAGA",Jaboatão Dos Guararapes,"RUA BARRETO DE MENEZES S/N","MARCOS FREIRE","278, 279, 280, 281, 282, 283, 284, 285, 286","278-393, 279-393, 280-390, 281-393, 282-393, 283-390, 284-388, 285-393, 286-394",3527,-8.13586552,-34.97568935
11,1279,"ESCOLA MARECHAL CASTELO BRANCO",Jaboatão Dos Guararapes,"RUA MADRE DE DEUS, SN","VILA RICA","337","337-0",0,-8.11756132,-35.02690204
11,1473,"ESCOLA MUNICIPAL ANA FARIAS DE SOUZA",Jaboatão Dos Guararapes,"RUA RIACHO DAS ALMAS, 334, PORTAL DOS PRAZERES","MARCOS FREIRE","343","343-250",250,-8.14655756,-34.95942674
11,1430,"ESCOLA MUNICIPAL BARÃO DE MURIBECA",Jaboatão Dos Guararapes,"RUA DA MATRIZ S/N","MURIBECA DOS GUARARAPES","322, 323, 324, 325, 345","322-361, 323-360, 324-360, 325-360, 345-360",1801,-8.17047296,-34.99859468
11,1333,"ESCOLA MUNICIPAL NOVA VISÃO",Jaboatão Dos Guararapes,"AV. GENERAL MANUEL RABELO, 111","ENGENHO VELHO","1, 2, 3, 4, 5, 6, 7, 8, 9, 10, 105, 106","1-279, 2-274, 3-273, 4-274, 5-277, 6-275, 7-274, 8-271, 9-275, 10-274, 105-284, 106-285",3315,-8.11154459,-35.01266396
11,1252,"ESCOLA MUNICIPAL POETA VINICIUS DE MORAES",Jaboatão Dos Guararapes,"RUA BOA ESPERANCA, S/N","VILA RICA","240, 241, 249, 254, 256","240-397, 241-396, 249-394, 254-399, 256-396",1982,-8.11532531,-35.02126068
11,1457,"ESCOLA MUNICIPAL PROFª TECLA TEIXEIRA DE ARRUDA",Jaboatão Dos Guararapes,"RUA BARRETO DE MENEZES S/N","MARCOS FREIRE","326, 327, 328, 329, 338, 348, 351","326-380, 327-386, 328-388, 329-379, 338-395, 348-382, 351-204",2514,-8.13489743,-34.97568701
11,1287,"ESCOLA MUNICIPAL PROFESSOR ROBERTO INÁCIO DA SILVA",Jaboatão Dos Guararapes,"RUA DA BOA ESPERANÇA, S/N","VILA RICA","215, 218, 221, 225, 230, 231, 236, 238","215-285, 218-284, 221-285, 225-284, 230-286, 231-285, 236-285, 238-284",2278,-8.11575609,-35.02140157
11,1368,"ESCOLA MUNICIPAL RURAL MARIA FEIJO",Jaboatão Dos Guararapes,"AV RIO JABOATAO, S/N","MURIBECA","257, 258, 259, 260, 346","257-375, 258-378, 259-375, 260-376, 346-378",1882,-8.15130555,-34.97849237
11,1155,"ESCOLA NESTOR GOMES DE MOURA",Jaboatão Dos Guararapes,"RUA TRAVESSA BOA ESPERANCA                      SN","VILA RICA","129, 130, 131, 132, 133, 134, 135, 136, 137, 138, 139, 140, 141, 153, 163, 168, 173","129-392, 130-391, 131-393, 132-394, 133-390, 134-391, 135-390, 136-389, 137-393, 138-394, 139-393, 140-395, 141-393, 153-391, 163-390, 168-391, 173-387",6657,-8.11677016,-35.02134124
11,1406,"ESCOLA NOSSA SENHORA APARECIDA",Jaboatão Dos Guararapes,"RUA PILÕES S/N - LOTEAMENTO NOVO HORIZONTE","COMPORTA","287, 288, 289, 290, 291, 292, 293, 349","287-374, 288-372, 289-369, 290-361, 291-370, 292-367, 293-363, 349-353",2929,-8.18646875,-34.96570779
11,1147,"ESCOLA PASTOR JOAO ADALGISO DE OLIVEIRA",Jaboatão Dos Guararapes,"RUA PADRE ROMA                             196","PADRE ROMA","123, 124, 125, 126, 127, 128, 142","123-394, 124-392, 125-389, 126-388, 127-391, 128-388, 142-389",2731,-8.11817671,-35.01541085
11,1058,"ESCOLA SOUZA BRANDAO",Jaboatão Dos Guararapes,"AV. GENERAL MANOEL RABELO              361","ENGENHO VELHO","36, 37, 38, 39, 40, 41, 42, 80, 81, 82, 83, 84, 85, 148","36-294, 37-296, 38-294, 39-296, 40-294, 41-296, 42-293, 80-294, 81-293, 82-293, 83-296, 84-292, 85-296, 148-294",4121,-8.11087643,-35.01178695
11,1066,"ESCOLA TÉCNICA ESTADUAL MAXIMIANO ACCIOLY CAMPOS",Jaboatão Dos Guararapes,"AV GAL MANUEL RABELO - S/N","CENTRO","43, 44, 45, 46, 47, 48, 49, 50, 51, 52, 53, 54, 93, 94, 95, 96, 97, 143","43-269, 44-268, 45-268, 46-264, 47-267, 48-265, 49-265, 50-267, 51-267, 52-263, 53-263, 54-269, 93-269, 94-266, 95-267, 96-266, 97-264, 143-268",4795,-8.11208337,-35.01286383
11,1228,"ESCOLA VILA RICA",Jaboatão Dos Guararapes,"CONJUNTO HABITACIONALVILA RICA QD 01 LOTE 04 S/N","VILA RICA","170, 171, 180, 184, 186, 192, 196, 200, 202, 205, 206, 209, 210","170-396, 171-390, 180-393, 184-392, 186-395, 192-393, 196-389, 200-392, 202-395, 205-395, 206-392, 209-392, 210-396",5110,-8.12229214,-35.02742022
11,1074,"GINASIO ESTADUAL RODOLFO AURELIANO",Jaboatão Dos Guararapes,"RUA BARAO DE LUCENA                    665","CENTRO","55, 56, 57, 58, 59, 60, 61, 62, 63, 64, 65, 66, 67, 68, 69, 70, 150","55-401, 56-393, 57-390, 58-394, 59-393, 60-397, 61-394, 62-397, 63-392, 64-395, 65-395, 66-392, 67-392, 68-394, 69-391, 70-393, 150-389",6692,-8.11313041,-35.01960415
11,1031,"GRUPO ESCOLAR BERNARDO VIEIRA DE MELO",Jaboatão Dos Guararapes,"RUA BARÃO DE LUCENA, 422","CENTRO","22, 23, 24, 25, 26, 27, 28, 29, 30, 31, 32, 33, 34, 35, 107, 144, 145, 151","22-374, 23-378, 24-371, 25-374, 26-375, 27-377, 28-373, 29-374, 30-372, 31-373, 32-375, 33-376, 34-373, 35-376, 107-377, 144-373, 145-378, 151-378",6747,-8.11216974,-35.01702634
11,1210,"GRUPO ESCOLAR FREI JABOATÃO",Jaboatão Dos Guararapes,"RUA FREI JABOATÃO - S/N","VISTA ALEGRE","169, 181, 187, 191, 201, 207, 212, 219","169-386, 181-388, 187-388, 191-390, 201-393, 207-392, 212-396, 219-389",3122,-8.11012606,-35.02376659
11,1171,"GRUPO ESCOLAR HENRIQUETA DE OLIVEIRA",Jaboatão Dos Guararapes,"ESTRADA DA LUZ                              SN","SANTO ALEIXO","156, 167, 177, 182, 188, 222, 228, 233","156-377, 167-380, 177-380, 182-379, 188-379, 222-383, 228-381, 233-381",3040,-8.09769632,-35.02084024
11,1112,"SESI",Jaboatão Dos Guararapes,"RUA BARAO DE LUCENA                    251","CENTRO","336","336-0",0,-8.11222225,-35.01596682
11,1015,"YAPOATAM COLEGIO E CURSO",Jaboatão Dos Guararapes,"AV. BARAO DE LUCENA, 99            ","CENTRO","11, 12, 13, 14, 15, 16, 17, 18, 19, 20, 21, 86, 87, 88, 89, 90, 91, 92, 147, 154","11-300, 12-298, 13-295, 14-298, 15-296, 16-297, 17-299, 18-299, 19-296, 20-296, 21-297, 86-293, 87-296, 88-297, 89-298, 90-299, 91-299, 92-300, 147-297, 154-333",5983,-8.1120086,-35.01460832
12,1058,"CENTRO EDUCACIONAL PROFESSOR NILO PEREIRA",Paulista,"RUA DR. JOSE MARIANO","PARATIBE","363, 404, 421, 425, 461, 467","363-231, 404-241, 421-231, 425-228, 461-224, 467-227",1382,-7.9327451,-34.8985036
12,1325,"EREM PADRE OSMAR NOVAES(POLIVALENTE DE PARATIBE)",Paulista,"RUA DR. JOSÉ MARIANO, S/N","PARATIBE","190, 191, 192, 193, 194, 195, 196, 197, 198, 199, 324, 356, 386, 413","190-341, 191-341, 192-344, 193-342, 194-338, 195-340, 196-341, 197-342, 198-342, 199-340, 324-342, 356-341, 386-340, 413-342",4776,-7.9326491,-34.8979649
12,1244,"ESCOLA ERALDO GUEIROS LEITE",Paulista,"RUA SERRA TALHADA,S/N","ARTHUR LUNDGREN II","148, 155, 157, 166, 172, 282, 291, 294, 303, 323, 335, 368, 385, 399, 414, 426","148-339, 155-337, 157-340, 166-337, 172-334, 282-338, 291-335, 294-336, 303-338, 323-338, 335-336, 368-333, 385-338, 399-335, 414-335, 426-332",5381,-7.9238106,-34.893555
12,1147,"ESCOLA FREI GUIDO",Paulista,"AV JOAO PAULO II,  212","MIRUEIRA","108, 109, 110, 111, 112, 377, 476","108-315, 109-316, 110-315, 111-316, 112-315, 377-319, 476-315",2211,-7.9665276,-34.8907251
12,1015,"ESCOLA MANOEL DE BASTOS TIGRE",Paulista,"AV. PALMARES, SN","ARTHUR LUNDGREN I","1, 2, 3, 4, 5, 6, 7, 8, 9, 10, 11, 12, 13, 14","1-395, 2-394, 3-395, 4-394, 5-394, 6-389, 7-395, 8-398, 9-391, 10-395, 11-399, 12-393, 13-391, 14-395",5518,-7.9344455,-34.8887404
12,1414,"ESCOLA MARIA LUZIA PESSOA DE ANDRADE",Paulista,"RUA A 4, S/N ","PARATIBE","242, 243, 244, 245, 246, 367","242-364, 243-365, 244-366, 245-366, 246-369, 367-366",2196,-7.9388173,-34.9013479
12,1732,"ESCOLA MENINO JESUS",Paulista,"RUA EPITÁCIO CAXIAS, 16","CENTRO","359, 434, 452, 480, 496","359-361, 434-361, 452-370, 480-374, 496-310",1776,0,0
12,1627,"ESCOLA MUN. MANUEL ALVES DE MORAIS NAVARRO (ANTIGA FREDERICO LUNDGREN)",Paulista,"RUA GAMELEIRA, N 06","ARTHUR LUNDGREN I","451, 463, 479, 487","451-347, 463-346, 479-347, 487-345",1385,-7.9358871,-34.8881288
